<?xml version="1.0" encoding="UTF-8"?>
<kml xmlns="http://earth.google.com/kml/2.0">
<Document>
<Placemark>
<name>9 Nile Rd</name>
<description>3382</description>
<Point><coordinates>174.75143,-36.77869,0</coordinates></Point>
</Placemark>
<Placemark>
<name>40 Vauxhall Rd</name>
<description>3480</description>
<Point><coordinates>174.80429,-36.82308,0</coordinates></Point>
</Placemark>
<Placemark>
<name>Metcalfe Rd and Ranui</name>
<description>21094</description>
<Point><coordinates>174.60227,-36.87175,0</coordinates></Point>
</Placemark>
<Placemark>
<name>Manukau Rd and King George</name>
<description>11542</description>
<Point><coordinates>174.77511,-36.89001,0</coordinates></Point>
</Placemark>
<Placemark>
<name>Manukau Rd and Queen Mary</name>
<description>11543</description>
<Point><coordinates>174.77465,-36.89261,0</coordinates></Point>
</Placemark>
<Placemark>
<name>Manukau Rd and Ranfurly</name>
<description>11540</description>
<Point><coordinates>174.77558,-36.88468,0</coordinates></Point>
</Placemark>
<Placemark>
<name>Manukau Rd and Kimberley</name>
<description>11541</description>
<Point><coordinates>174.77531,-36.88789,0</coordinates></Point>
</Placemark>
<Placemark>
<name>Greenwoods Corner</name>
<description>11547</description>
<Point><coordinates>174.77332,-36.90056,0</coordinates></Point>
</Placemark>
<Placemark>
<name>Manukau Rd and Claude</name>
<description>11544</description>
<Point><coordinates>174.77419,-36.89469,0</coordinates></Point>
</Placemark>
<Placemark>
<name>Manukau Rd and Gardner</name>
<description>11545</description>
<Point><coordinates>174.77381,-36.89571,0</coordinates></Point>
</Placemark>
<Placemark>
<name>Manukau Rd and Gladwin</name>
<description>11548</description>
<Point><coordinates>174.77391,-36.903,0</coordinates></Point>
</Placemark>
<Placemark>
<name>Avondale College Bus Bay</name>
<description>5988</description>
<Point><coordinates>174.68907,-36.89059,0</coordinates></Point>
</Placemark>
<Placemark>
<name>Opp 676 West Coast Rd</name>
<description>5989</description>
<Point><coordinates>174.6046,-36.92069,0</coordinates></Point>
</Placemark>
<Placemark>
<name>Wallace Rd and Fairview</name>
<description>51269</description>
<Point><coordinates>174.85524,-36.98252,0</coordinates></Point>
</Placemark>
<Placemark>
<name>Wallace Rd and Grande Vue</name>
<description>51268</description>
<Point><coordinates>174.85644,-36.98477,0</coordinates></Point>
</Placemark>
<Placemark>
<name>Wallace Rd and Puhinui</name>
<description>51267</description>
<Point><coordinates>174.85803,-36.98773,0</coordinates></Point>
</Placemark>
<Placemark>
<name>Puhinui Rd and Ranfurly</name>
<description>51266</description>
<Point><coordinates>174.85997,-36.98759,0</coordinates></Point>
</Placemark>
<Placemark>
<name>Plunket Ave and Brett</name>
<description>51265</description>
<Point><coordinates>174.86243,-36.98917,0</coordinates></Point>
</Placemark>
<Placemark>
<name>Plunket Ave and Cavendish</name>
<description>51264</description>
<Point><coordinates>174.86365,-36.99126,0</coordinates></Point>
</Placemark>
<Placemark>
<name>Plunket Ave and Narek</name>
<description>51263</description>
<Point><coordinates>174.8656,-36.99431,0</coordinates></Point>
</Placemark>
<Placemark>
<name>105 Bolton St</name>
<description>5987</description>
<Point><coordinates>174.69363,-36.9191,0</coordinates></Point>
</Placemark>
<Placemark>
<name>Puhinui Rd and Tavistock</name>
<description>51261</description>
<Point><coordinates>174.86672,-36.98528,0</coordinates></Point>
</Placemark>
<Placemark>
<name>Opp 120 Hobsonville Rd</name>
<description>5985</description>
<Point><coordinates>174.6458,-36.79919,0</coordinates></Point>
</Placemark>
<Placemark>
<name>83 Kolmar Rd</name>
<description>6487</description>
<Point><coordinates>174.85661,-36.97392,0</coordinates></Point>
</Placemark>
<Placemark>
<name>Great South Rd Opp Penrose Station</name>
<description>7624</description>
<Point><coordinates>174.81619,-36.90976,0</coordinates></Point>
</Placemark>
<Placemark>
<name>Wattle Farm Rd opp Ranger Pl</name>
<description>6796</description>
<Point><coordinates>174.89474,-37.04132,0</coordinates></Point>
</Placemark>
<Placemark>
<name>59 Mahia Rd</name>
<description>6797</description>
<Point><coordinates>174.89902,-37.03489,0</coordinates></Point>
</Placemark>
<Placemark>
<name>104 Coxhead Rd</name>
<description>6794</description>
<Point><coordinates>174.89562,-37.03806,0</coordinates></Point>
</Placemark>
<Placemark>
<name>134 Mahia Rd</name>
<description>6795</description>
<Point><coordinates>174.89286,-37.03696,0</coordinates></Point>
</Placemark>
<Placemark>
<name>84 Coxhead Rd</name>
<description>6792</description>
<Point><coordinates>174.89448,-37.03587,0</coordinates></Point>
</Placemark>
<Placemark>
<name>21 Huia Rd</name>
<description>6793</description>
<Point><coordinates>174.86651,-36.96715,0</coordinates></Point>
</Placemark>
<Placemark>
<name>Opp 89 Coxhead Rd</name>
<description>6790</description>
<Point><coordinates>174.8926,-37.03399,0</coordinates></Point>
</Placemark>
<Placemark>
<name>17 Lane Rd</name>
<description>6791</description>
<Point><coordinates>174.86029,-37.04793,0</coordinates></Point>
</Placemark>
<Placemark>
<name>Opp 207 Pakuranga Rd</name>
<description>6798</description>
<Point><coordinates>174.87756,-36.91031,0</coordinates></Point>
</Placemark>
<Placemark>
<name>93 Mahia Rd</name>
<description>6799</description>
<Point><coordinates>174.89578,-37.03592,0</coordinates></Point>
</Placemark>
<Placemark>
<name>Bush Rd and Rosedale</name>
<description>49569</description>
<Point><coordinates>174.70403,-36.74066,0</coordinates></Point>
</Placemark>
<Placemark>
<name>Albany Hwy  near Oak Manor</name>
<description>49568</description>
<Point><coordinates>174.69311,-36.74444,0</coordinates></Point>
</Placemark>
<Placemark>
<name>Beach Rd and Leithway</name>
<description>49565</description>
<Point><coordinates>174.74356,-36.72623,0</coordinates></Point>
</Placemark>
<Placemark>
<name>Torbay</name>
<description>49564</description>
<Point><coordinates>174.75233,-36.69614,0</coordinates></Point>
</Placemark>
<Placemark>
<name>Coliseum Dr near North Albany Expressway</name>
<description>49567</description>
<Point><coordinates>174.70235,-36.72926,0</coordinates></Point>
</Placemark>
<Placemark>
<name>East Coast Rd and</name>
<description>49566</description>
<Point><coordinates>174.74176,-36.74084,0</coordinates></Point>
</Placemark>
<Placemark>
<name>768 East Coast Rd</name>
<description>49561</description>
<Point><coordinates>174.72312,-36.72301,0</coordinates></Point>
</Placemark>
<Placemark>
<name>East Coast Rd  and Hauraki</name>
<description>49560</description>
<Point><coordinates>174.72628,-36.72657,0</coordinates></Point>
</Placemark>
<Placemark>
<name>Carlisle Rd near Limmer</name>
<description>49563</description>
<Point><coordinates>174.73336,-36.70943,0</coordinates></Point>
</Placemark>
<Placemark>
<name>Opp 37 Medallion Dr</name>
<description>49562</description>
<Point><coordinates>174.71718,-36.71998,0</coordinates></Point>
</Placemark>
<Placemark>
<name>1686 to 1687 SH 17</name>
<description>41671</description>
<Point><coordinates>174.6561,-36.62964,0</coordinates></Point>
</Placemark>
<Placemark>
<name>67 Rosier Rd</name>
<description>5983</description>
<Point><coordinates>174.63959,-36.91422,0</coordinates></Point>
</Placemark>
<Placemark>
<name>Puhinui Rd and York</name>
<description>51262</description>
<Point><coordinates>174.86432,-36.9862,0</coordinates></Point>
</Placemark>
<Placemark>
<name>1602 to 1609 SH 17</name>
<description>41670</description>
<Point><coordinates>174.65078,-36.63576,0</coordinates></Point>
</Placemark>
<Placemark>
<name>Opp 134 Bayswater Ave</name>
<description>3519</description>
<Point><coordinates>174.7835,-36.81151,0</coordinates></Point>
</Placemark>
<Placemark>
<name>14 Old Lake Rd</name>
<description>3518</description>
<Point><coordinates>174.79847,-36.81217,0</coordinates></Point>
</Placemark>
<Placemark>
<name>75 Bayswater Ave</name>
<description>3513</description>
<Point><coordinates>174.77743,-36.8143,0</coordinates></Point>
</Placemark>
<Placemark>
<name>58 Old Lake Rd</name>
<description>3512</description>
<Point><coordinates>174.79292,-36.81262,0</coordinates></Point>
</Placemark>
<Placemark>
<name>41 Bayswater Ave</name>
<description>3511</description>
<Point><coordinates>174.77433,-36.8152,0</coordinates></Point>
</Placemark>
<Placemark>
<name>24 Aramoana Ave</name>
<description>3510</description>
<Point><coordinates>174.7902,-36.81562,0</coordinates></Point>
</Placemark>
<Placemark>
<name>111 Bayswater Ave</name>
<description>3517</description>
<Point><coordinates>174.7808,-36.81273,0</coordinates></Point>
</Placemark>
<Placemark>
<name>22 Old Lake Rd</name>
<description>3516</description>
<Point><coordinates>174.79723,-36.81229,0</coordinates></Point>
</Placemark>
<Placemark>
<name>21 Burns Ave</name>
<description>3515</description>
<Point><coordinates>174.77249,-36.79385,0</coordinates></Point>
</Placemark>
<Placemark>
<name>36 Old Lake Rd</name>
<description>3514</description>
<Point><coordinates>174.79513,-36.81245,0</coordinates></Point>
</Placemark>
<Placemark>
<name>109 Settlement Rd</name>
<description>2685</description>
<Point><coordinates>174.96604,-37.06554,0</coordinates></Point>
</Placemark>
<Placemark>
<name>Whitford Maraetai Rd by Waikopua Rd</name>
<description>2140</description>
<Point><coordinates>174.99729,-36.92469,0</coordinates></Point>
</Placemark>
<Placemark>
<name>Aliford Ave and Ewenson</name>
<description>11664</description>
<Point><coordinates>174.80293,-36.90432,0</coordinates></Point>
</Placemark>
<Placemark>
<name>Mt Wellington Hwy and Hamlin</name>
<description>31512</description>
<Point><coordinates>174.83805,-36.91202,0</coordinates></Point>
</Placemark>
<Placemark>
<name>Carlisle Rd and Finchley</name>
<description>41565</description>
<Point><coordinates>174.73753,-36.70968,0</coordinates></Point>
</Placemark>
<Placemark>
<name>Carlisle Rd and Woodlands</name>
<description>41564</description>
<Point><coordinates>174.74149,-36.7106,0</coordinates></Point>
</Placemark>
<Placemark>
<name>Carlisle Rd and East Coast</name>
<description>41567</description>
<Point><coordinates>174.7287,-36.70917,0</coordinates></Point>
</Placemark>
<Placemark>
<name>Carlisle Rd and Barker</name>
<description>41566</description>
<Point><coordinates>174.73223,-36.70955,0</coordinates></Point>
</Placemark>
<Placemark>
<name>Mizpah Rd and Deep Creek</name>
<description>41561</description>
<Point><coordinates>174.74395,-36.7091,0</coordinates></Point>
</Placemark>
<Placemark>
<name>Deep Creek Rd and Mizpah</name>
<description>41560</description>
<Point><coordinates>174.74344,-36.70841,0</coordinates></Point>
</Placemark>
<Placemark>
<name>Beach Rd and Woodlands</name>
<description>41563</description>
<Point><coordinates>174.74293,-36.71371,0</coordinates></Point>
</Placemark>
<Placemark>
<name>Deep Creek Rd and Firth</name>
<description>41562</description>
<Point><coordinates>174.74309,-36.70927,0</coordinates></Point>
</Placemark>
<Placemark>
<name>Oteha Valley Rd and Rising</name>
<description>41569</description>
<Point><coordinates>174.72097,-36.71317,0</coordinates></Point>
</Placemark>
<Placemark>
<name>Oteha Valley Rd and East Coast</name>
<description>41568</description>
<Point><coordinates>174.72652,-36.71013,0</coordinates></Point>
</Placemark>
<Placemark>
<name>SH 16 near Factory Rd</name>
<description>4524</description>
<Point><coordinates>174.49658,-36.76673,0</coordinates></Point>
</Placemark>
<Placemark>
<name>3 Miami Ave</name>
<description>1177</description>
<Point><coordinates>175.02592,-36.79329,0</coordinates></Point>
</Placemark>
<Placemark>
<name>Te Toki Rd near Bay Rd</name>
<description>1176</description>
<Point><coordinates>175.04802,-36.79092,0</coordinates></Point>
</Placemark>
<Placemark>
<name>21 Surfdale Rd</name>
<description>1175</description>
<Point><coordinates>175.0235,-36.79057,0</coordinates></Point>
</Placemark>
<Placemark>
<name>Wharf Rd opp Muritai Rd</name>
<description>1174</description>
<Point><coordinates>175.04583,-36.79359,0</coordinates></Point>
</Placemark>
<Placemark>
<name>237 Ocean View Rd</name>
<description>1173</description>
<Point><coordinates>175.02274,-36.78769,0</coordinates></Point>
</Placemark>
<Placemark>
<name>56 Wharf Rd</name>
<description>1172</description>
<Point><coordinates>175.04285,-36.79654,0</coordinates></Point>
</Placemark>
<Placemark>
<name>Ocean View Rd opp Moa Ave</name>
<description>1171</description>
<Point><coordinates>175.01612,-36.7847,0</coordinates></Point>
</Placemark>
<Placemark>
<name>Ostend Rd near Natzka Rd</name>
<description>1170</description>
<Point><coordinates>175.04829,-36.79601,0</coordinates></Point>
</Placemark>
<Placemark>
<name>11 Mitchell Rd</name>
<description>1179</description>
<Point><coordinates>175.02794,-36.79519,0</coordinates></Point>
</Placemark>
<Placemark>
<name>Te Toki Rd opp Wilma Rd</name>
<description>1178</description>
<Point><coordinates>175.04428,-36.78718,0</coordinates></Point>
</Placemark>
<Placemark>
<name>21 Puriri Ave</name>
<description>4523</description>
<Point><coordinates>174.68925,-36.57789,0</coordinates></Point>
</Placemark>
<Placemark>
<name>26 High St For St Jospehs</name>
<description>1494</description>
<Point><coordinates>174.84792,-36.94475,0</coordinates></Point>
</Placemark>
<Placemark>
<name>128 Parnell Rd</name>
<description>7188</description>
<Point><coordinates>174.77921,-36.85331,0</coordinates></Point>
</Placemark>
<Placemark>
<name>279 Parnell Rd</name>
<description>7189</description>
<Point><coordinates>174.78094,-36.85633,0</coordinates></Point>
</Placemark>
<Placemark>
<name>440 Khyber Pass Rd</name>
<description>7180</description>
<Point><coordinates>174.77725,-36.86741,0</coordinates></Point>
</Placemark>
<Placemark>
<name>Opp 87 Beach Rd</name>
<description>7182</description>
<Point><coordinates>174.77361,-36.84715,0</coordinates></Point>
</Placemark>
<Placemark>
<name>Beach Rd near Stanley St</name>
<description>7183</description>
<Point><coordinates>174.77455,-36.85067,0</coordinates></Point>
</Placemark>
<Placemark>
<name>154 Beach Rd</name>
<description>7184</description>
<Point><coordinates>174.77461,-36.84993,0</coordinates></Point>
</Placemark>
<Placemark>
<name>83 Parnell Rise</name>
<description>7185</description>
<Point><coordinates>174.77768,-36.85194,0</coordinates></Point>
</Placemark>
<Placemark>
<name>Parnell Rise near Parnell Rd</name>
<description>7186</description>
<Point><coordinates>174.77798,-36.85186,0</coordinates></Point>
</Placemark>
<Placemark>
<name>129 Parnell Rd</name>
<description>7187</description>
<Point><coordinates>174.77928,-36.85365,0</coordinates></Point>
</Placemark>
<Placemark>
<name>Opp 214 Rosebank Rd</name>
<description>8549</description>
<Point><coordinates>174.68555,-36.8884,0</coordinates></Point>
</Placemark>
<Placemark>
<name>310 Rosebank Rd</name>
<description>8548</description>
<Point><coordinates>174.68025,-36.88327,0</coordinates></Point>
</Placemark>
<Placemark>
<name>22 Pt Chevalier Rd</name>
<description>8019</description>
<Point><coordinates>174.70964,-36.87035,0</coordinates></Point>
</Placemark>
<Placemark>
<name>39 Pt Chevalier Rd</name>
<description>8018</description>
<Point><coordinates>174.70986,-36.86993,0</coordinates></Point>
</Placemark>
<Placemark>
<name>92 Pt Chevalier Rd</name>
<description>8017</description>
<Point><coordinates>174.70854,-36.86819,0</coordinates></Point>
</Placemark>
<Placemark>
<name>91 Pt Chevalier Rd</name>
<description>8016</description>
<Point><coordinates>174.70862,-36.8681,0</coordinates></Point>
</Placemark>
<Placemark>
<name>152 Pt Chevalier Rd</name>
<description>8015</description>
<Point><coordinates>174.70685,-36.86597,0</coordinates></Point>
</Placemark>
<Placemark>
<name>157 Pt Chevalier Rd</name>
<description>8014</description>
<Point><coordinates>174.7068,-36.86573,0</coordinates></Point>
</Placemark>
<Placemark>
<name>196 Pt Chevalier Rd</name>
<description>8013</description>
<Point><coordinates>174.70573,-36.86449,0</coordinates></Point>
</Placemark>
<Placemark>
<name>203 Pt Chevalier Rd</name>
<description>8012</description>
<Point><coordinates>174.70579,-36.86439,0</coordinates></Point>
</Placemark>
<Placemark>
<name>254 Pt Chevalier Rd</name>
<description>8011</description>
<Point><coordinates>174.70427,-36.86256,0</coordinates></Point>
</Placemark>
<Placemark>
<name>Opp 254 Pt Chevalier Rd</name>
<description>8010</description>
<Point><coordinates>174.70439,-36.86253,0</coordinates></Point>
</Placemark>
<Placemark>
<name>29 Amy St</name>
<description>7456</description>
<Point><coordinates>174.81431,-36.89615,0</coordinates></Point>
</Placemark>
<Placemark>
<name>27 Ferndale Rd</name>
<description>7457</description>
<Point><coordinates>174.82927,-36.89919,0</coordinates></Point>
</Placemark>
<Placemark>
<name>Merton Rd near Morrin Rd</name>
<description>7455</description>
<Point><coordinates>174.85061,-36.88031,0</coordinates></Point>
</Placemark>
<Placemark>
<name>Merton Rd and Felton Matthew Ave</name>
<description>7452</description>
<Point><coordinates>174.8504,-36.88019,0</coordinates></Point>
</Placemark>
<Placemark>
<name>59 Howard Hunter Ave</name>
<description>7453</description>
<Point><coordinates>174.84841,-36.87928,0</coordinates></Point>
</Placemark>
<Placemark>
<name>82 Howard Hunter Ave</name>
<description>7450</description>
<Point><coordinates>174.8486,-36.87963,0</coordinates></Point>
</Placemark>
<Placemark>
<name>Opp 32 Howard Hunter Ave</name>
<description>7451</description>
<Point><coordinates>174.84827,-36.87654,0</coordinates></Point>
</Placemark>
<Placemark>
<name>18 Pukerangi Cr</name>
<description>7458</description>
<Point><coordinates>174.81285,-36.89431,0</coordinates></Point>
</Placemark>
<Placemark>
<name>Opp 82 Bader Dr</name>
<description>2033</description>
<Point><coordinates>174.79544,-36.96554,0</coordinates></Point>
</Placemark>
<Placemark>
<name>144 Cryers Rd</name>
<description>2032</description>
<Point><coordinates>174.89569,-36.9301,0</coordinates></Point>
</Placemark>
<Placemark>
<name>35 Beach Rd</name>
<description>4733</description>
<Point><coordinates>174.76556,-36.62759,0</coordinates></Point>
</Placemark>
<Placemark>
<name>6 Beach Rd</name>
<description>4730</description>
<Point><coordinates>174.76387,-36.63074,0</coordinates></Point>
</Placemark>
<Placemark>
<name>21 Ladies Mile</name>
<description>4731</description>
<Point><coordinates>174.75459,-36.63788,0</coordinates></Point>
</Placemark>
<Placemark>
<name>46 Stanmore Bay Rd</name>
<description>4736</description>
<Point><coordinates>174.749,-36.63159,0</coordinates></Point>
</Placemark>
<Placemark>
<name>19 Kauri Rd</name>
<description>4737</description>
<Point><coordinates>174.73948,-36.6303,0</coordinates></Point>
</Placemark>
<Placemark>
<name>119 Terry St</name>
<description>8291</description>
<Point><coordinates>174.71435,-36.91662,0</coordinates></Point>
</Placemark>
<Placemark>
<name>452 Roscommon Rd</name>
<description>2318</description>
<Point><coordinates>174.86772,-37.02901,0</coordinates></Point>
</Placemark>
<Placemark>
<name>202 Whitney St</name>
<description>8290</description>
<Point><coordinates>174.70884,-36.91581,0</coordinates></Point>
</Placemark>
<Placemark>
<name>3 Beach Rd</name>
<description>4735</description>
<Point><coordinates>174.76402,-36.63049,0</coordinates></Point>
</Placemark>
<Placemark>
<name>35 Carruth Rd</name>
<description>6535</description>
<Point><coordinates>174.86253,-36.98,0</coordinates></Point>
</Placemark>
<Placemark>
<name>77 Richard Pearse Dr</name>
<description>2039</description>
<Point><coordinates>174.78105,-36.9829,0</coordinates></Point>
</Placemark>
<Placemark>
<name>Opp 152 Boundary Rd</name>
<description>8295</description>
<Point><coordinates>174.71377,-36.92008,0</coordinates></Point>
</Placemark>
<Placemark>
<name>4 Turnberry Dr</name>
<description>2314</description>
<Point><coordinates>174.88087,-37.04982,0</coordinates></Point>
</Placemark>
<Placemark>
<name>154 Terry St</name>
<description>8294</description>
<Point><coordinates>174.7143,-36.91656,0</coordinates></Point>
</Placemark>
<Placemark>
<name>3 Stanmore Bay Rd</name>
<description>4739</description>
<Point><coordinates>174.7481,-36.63485,0</coordinates></Point>
</Placemark>
<Placemark>
<name>98 Carruth Rd</name>
<description>6530</description>
<Point><coordinates>174.86551,-36.98158,0</coordinates></Point>
</Placemark>
<Placemark>
<name>Opp 101 Boundary Rd</name>
<description>8296</description>
<Point><coordinates>174.71462,-36.91808,0</coordinates></Point>
</Placemark>
<Placemark>
<name>Lake Rd and Williamson</name>
<description>41068</description>
<Point><coordinates>174.79011,-36.80778,0</coordinates></Point>
</Placemark>
<Placemark>
<name>86 Stancombe Rd</name>
<description>2308</description>
<Point><coordinates>174.91829,-36.95916,0</coordinates></Point>
</Placemark>
<Placemark>
<name>3 Ladies Mile</name>
<description>4729</description>
<Point><coordinates>174.75403,-36.63883,0</coordinates></Point>
</Placemark>
<Placemark>
<name>Line Rd and West Tamaki</name>
<description>31909</description>
<Point><coordinates>174.85895,-36.87025,0</coordinates></Point>
</Placemark>
<Placemark>
<name>1 Kawau Island Ave</name>
<description>4725</description>
<Point><coordinates>174.75552,-36.63273,0</coordinates></Point>
</Placemark>
<Placemark>
<name>34 Weymouth Rd</name>
<description>2300</description>
<Point><coordinates>174.89458,-37.02503,0</coordinates></Point>
</Placemark>
<Placemark>
<name>37 Ladies Mile</name>
<description>4727</description>
<Point><coordinates>174.7546,-36.636,0</coordinates></Point>
</Placemark>
<Placemark>
<name>184 Robertson Rd</name>
<description>2302</description>
<Point><coordinates>174.81672,-36.97094,0</coordinates></Point>
</Placemark>
<Placemark>
<name>Remuera Rd and Nufield</name>
<description>31900</description>
<Point><coordinates>174.77792,-36.87022,0</coordinates></Point>
</Placemark>
<Placemark>
<name>Remuera Rd and Glen Esk</name>
<description>31901</description>
<Point><coordinates>174.78537,-36.87537,0</coordinates></Point>
</Placemark>
<Placemark>
<name>Remuera Rd and St Vincent</name>
<description>31902</description>
<Point><coordinates>174.80002,-36.88085,0</coordinates></Point>
</Placemark>
<Placemark>
<name>44 Burundi Ave</name>
<description>2306</description>
<Point><coordinates>174.8621,-37.02769,0</coordinates></Point>
</Placemark>
<Placemark>
<name>3999 Great North Rd</name>
<description>5847</description>
<Point><coordinates>174.66366,-36.90784,0</coordinates></Point>
</Placemark>
<Placemark>
<name>64 Waimarie Rd</name>
<description>5846</description>
<Point><coordinates>174.63677,-36.77921,0</coordinates></Point>
</Placemark>
<Placemark>
<name>Vitasovich Ave near View Rd</name>
<description>5845</description>
<Point><coordinates>174.63406,-36.88588,0</coordinates></Point>
</Placemark>
<Placemark>
<name>2 Puriri Rd</name>
<description>5844</description>
<Point><coordinates>174.63687,-36.78064,0</coordinates></Point>
</Placemark>
<Placemark>
<name>Vitasovich Ave opp Waitakere Mega Centre</name>
<description>5843</description>
<Point><coordinates>174.63443,-36.88282,0</coordinates></Point>
</Placemark>
<Placemark>
<name>44 Puriri Rd</name>
<description>5842</description>
<Point><coordinates>174.64021,-36.78131,0</coordinates></Point>
</Placemark>
<Placemark>
<name>Henderson Interchange</name>
<description>5841</description>
<Point><coordinates>174.63113,-36.88061,0</coordinates></Point>
</Placemark>
<Placemark>
<name>Opp 145 Kauri Rd</name>
<description>5840</description>
<Point><coordinates>174.64392,-36.78258,0</coordinates></Point>
</Placemark>
<Placemark>
<name>Sandringham Rd and Mt Albert</name>
<description>11281</description>
<Point><coordinates>174.73378,-36.89657,0</coordinates></Point>
</Placemark>
<Placemark>
<name>Sandringham Rd and Parry</name>
<description>11280</description>
<Point><coordinates>174.73535,-36.89451,0</coordinates></Point>
</Placemark>
<Placemark>
<name>Sandringham Rd and O&#39;Donnell</name>
<description>11283</description>
<Point><coordinates>174.73068,-36.90118,0</coordinates></Point>
</Placemark>
<Placemark>
<name>Sandringham Rd and Sheppard</name>
<description>11282</description>
<Point><coordinates>174.73187,-36.89896,0</coordinates></Point>
</Placemark>
<Placemark>
<name>Sandringham Rd and Farrelly</name>
<description>11284</description>
<Point><coordinates>174.72951,-36.90261,0</coordinates></Point>
</Placemark>
<Placemark>
<name>Morningside Dr and St Lukes</name>
<description>11287</description>
<Point><coordinates>174.7327,-36.88165,0</coordinates></Point>
</Placemark>
<Placemark>
<name>Morningside Dr and Leslie</name>
<description>11286</description>
<Point><coordinates>174.73514,-36.87804,0</coordinates></Point>
</Placemark>
<Placemark>
<name>1 Lingfield St</name>
<description>3749</description>
<Point><coordinates>174.7313,-36.78434,0</coordinates></Point>
</Placemark>
<Placemark>
<name>45 Lingfield St</name>
<description>3747</description>
<Point><coordinates>174.72855,-36.78649,0</coordinates></Point>
</Placemark>
<Placemark>
<name>81 Archers Rd</name>
<description>3745</description>
<Point><coordinates>174.73122,-36.78719,0</coordinates></Point>
</Placemark>
<Placemark>
<name>Ferry Terminal - West Harbour</name>
<description>98101</description>
<Point><coordinates>174.64555,-36.81096,0</coordinates></Point>
</Placemark>
<Placemark>
<name>Opp 128 Archers Rd</name>
<description>3743</description>
<Point><coordinates>174.73419,-36.78485,0</coordinates></Point>
</Placemark>
<Placemark>
<name>Opp 1143 Whangaparaoa Rd</name>
<description>4620</description>
<Point><coordinates>174.77834,-36.61193,0</coordinates></Point>
</Placemark>
<Placemark>
<name>1071 Whangaparaoa Rd</name>
<description>4621</description>
<Point><coordinates>174.77238,-36.62184,0</coordinates></Point>
</Placemark>
<Placemark>
<name>1136 Whangaparaoa Rd</name>
<description>4622</description>
<Point><coordinates>174.77393,-36.6169,0</coordinates></Point>
</Placemark>
<Placemark>
<name>1033 Whangaparaoa Rd</name>
<description>4623</description>
<Point><coordinates>174.77044,-36.62374,0</coordinates></Point>
</Placemark>
<Placemark>
<name>1072 Whangaparaoa Rd</name>
<description>4624</description>
<Point><coordinates>174.77243,-36.62166,0</coordinates></Point>
</Placemark>
<Placemark>
<name>981 Whangaparaoa Rd</name>
<description>4625</description>
<Point><coordinates>174.76929,-36.62723,0</coordinates></Point>
</Placemark>
<Placemark>
<name>1038 Whangaparaoa Rd</name>
<description>4626</description>
<Point><coordinates>174.77016,-36.62388,0</coordinates></Point>
</Placemark>
<Placemark>
<name>945 Whangaparaoa Rd</name>
<description>4627</description>
<Point><coordinates>174.76593,-36.63024,0</coordinates></Point>
</Placemark>
<Placemark>
<name>998 Whangaparaoa Rd</name>
<description>4628</description>
<Point><coordinates>174.76919,-36.62724,0</coordinates></Point>
</Placemark>
<Placemark>
<name>923 Whangaparaoa Rd</name>
<description>4629</description>
<Point><coordinates>174.76382,-36.63197,0</coordinates></Point>
</Placemark>
<Placemark>
<name>Hugh Green Dr and Killybegs</name>
<description>41822</description>
<Point><coordinates>174.72622,-36.7326,0</coordinates></Point>
</Placemark>
<Placemark>
<name>1225 to Opp 1245 East Coast Rd</name>
<description>41823</description>
<Point><coordinates>174.70708,-36.69337,0</coordinates></Point>
</Placemark>
<Placemark>
<name>East Coast Rd and Haigh Access</name>
<description>41824</description>
<Point><coordinates>174.69904,-36.68251,0</coordinates></Point>
</Placemark>
<Placemark>
<name>East Coast Rd and Spur</name>
<description>41825</description>
<Point><coordinates>174.66921,-36.64233,0</coordinates></Point>
</Placemark>
<Placemark>
<name>Long Bay Primary School</name>
<description>41826</description>
<Point><coordinates>174.73551,-36.69117,0</coordinates></Point>
</Placemark>
<Placemark>
<name>Greville Rd Near Hauraki</name>
<description>41827</description>
<Point><coordinates>174.72637,-36.72883,0</coordinates></Point>
</Placemark>
<Placemark>
<name>Mt Albert Rd and Pah</name>
<description>11757</description>
<Point><coordinates>174.77012,-36.91071,0</coordinates></Point>
</Placemark>
<Placemark>
<name>Herd Rd by Selwyn Heights Retirement</name>
<description>11756</description>
<Point><coordinates>174.76607,-36.91623,0</coordinates></Point>
</Placemark>
<Placemark>
<name>Balmoral and St Andrews</name>
<description>11755</description>
<Point><coordinates>174.76559,-36.89108,0</coordinates></Point>
</Placemark>
<Placemark>
<name>Greenlane West near The Drive</name>
<description>11754</description>
<Point><coordinates>174.76948,-36.89238,0</coordinates></Point>
</Placemark>
<Placemark>
<name>Greenlane West - East of Manukau Rd</name>
<description>11753</description>
<Point><coordinates>174.77546,-36.89326,0</coordinates></Point>
</Placemark>
<Placemark>
<name>Great South and Greenlane West</name>
<description>11752</description>
<Point><coordinates>174.79309,-36.88981,0</coordinates></Point>
</Placemark>
<Placemark>
<name>Opp 102 Great South Rd</name>
<description>11751</description>
<Point><coordinates>174.78263,-36.87986,0</coordinates></Point>
</Placemark>
<Placemark>
<name>Great South Rd near Market</name>
<description>11750</description>
<Point><coordinates>174.78468,-36.88218,0</coordinates></Point>
</Placemark>
<Placemark>
<name>Manukau Rd and Banff</name>
<description>11758</description>
<Point><coordinates>174.77355,-36.89779,0</coordinates></Point>
</Placemark>
<Placemark>
<name>Charles Prevost Dr and Wairere</name>
<description>51106</description>
<Point><coordinates>174.91361,-37.00622,0</coordinates></Point>
</Placemark>
<Placemark>
<name>Charles Prevost Dr and Kuripaka</name>
<description>51107</description>
<Point><coordinates>174.91021,-37.00856,0</coordinates></Point>
</Placemark>
<Placemark>
<name>Charles Prevost Dr and Byblos</name>
<description>51104</description>
<Point><coordinates>174.92085,-37.00313,0</coordinates></Point>
</Placemark>
<Placemark>
<name>Charles Prevost Dr and Norman</name>
<description>51105</description>
<Point><coordinates>174.91617,-37.0052,0</coordinates></Point>
</Placemark>
<Placemark>
<name>261 Hill Rd</name>
<description>51102</description>
<Point><coordinates>174.92352,-37.00626,0</coordinates></Point>
</Placemark>
<Placemark>
<name>Hill Rd and Idris</name>
<description>51103</description>
<Point><coordinates>174.92375,-37.00606,0</coordinates></Point>
</Placemark>
<Placemark>
<name>Hill Rd and Wairere</name>
<description>51100</description>
<Point><coordinates>174.91827,-37.0093,0</coordinates></Point>
</Placemark>
<Placemark>
<name>Hill Rd and Phoenica</name>
<description>51101</description>
<Point><coordinates>174.92045,-37.00718,0</coordinates></Point>
</Placemark>
<Placemark>
<name>Charles Prevost Dr and Lemonwood</name>
<description>51108</description>
<Point><coordinates>174.91221,-37.01137,0</coordinates></Point>
</Placemark>
<Placemark>
<name>Hill Rd near Botanical Gardens</name>
<description>51109</description>
<Point><coordinates>174.90924,-37.01353,0</coordinates></Point>
</Placemark>
<Placemark>
<name>Barrys Rd and Beazley</name>
<description>21282</description>
<Point><coordinates>174.6554,-36.88608,0</coordinates></Point>
</Placemark>
<Placemark>
<name>Barrys Rd and Hepburn</name>
<description>21283</description>
<Point><coordinates>174.65771,-36.88396,0</coordinates></Point>
</Placemark>
<Placemark>
<name>Glendene Ave and Crystal</name>
<description>21280</description>
<Point><coordinates>174.65108,-36.88733,0</coordinates></Point>
</Placemark>
<Placemark>
<name>Barrys Rd and Glendene</name>
<description>21281</description>
<Point><coordinates>174.65362,-36.88843,0</coordinates></Point>
</Placemark>
<Placemark>
<name>Hepburn Rd and Phelps</name>
<description>21286</description>
<Point><coordinates>174.65418,-36.89241,0</coordinates></Point>
</Placemark>
<Placemark>
<name>Phelps Pl and Farquhar</name>
<description>21287</description>
<Point><coordinates>174.65314,-36.89238,0</coordinates></Point>
</Placemark>
<Placemark>
<name>Hepburn Rd and Akatea</name>
<description>21284</description>
<Point><coordinates>174.65947,-36.88638,0</coordinates></Point>
</Placemark>
<Placemark>
<name>Hepburn Rd and Harmel</name>
<description>21285</description>
<Point><coordinates>174.65587,-36.89086,0</coordinates></Point>
</Placemark>
<Placemark>
<name>Farquhar Rd and Phelps</name>
<description>21288</description>
<Point><coordinates>174.65245,-36.89241,0</coordinates></Point>
</Placemark>
<Placemark>
<name>Farquhar Rd and Felgrove</name>
<description>21289</description>
<Point><coordinates>174.65081,-36.89418,0</coordinates></Point>
</Placemark>
<Placemark>
<name>Stanley Ave and Nile</name>
<description>41358</description>
<Point><coordinates>174.755,-36.77179,0</coordinates></Point>
</Placemark>
<Placemark>
<name>Nile Rd and Alma</name>
<description>41359</description>
<Point><coordinates>174.75635,-36.77375,0</coordinates></Point>
</Placemark>
<Placemark>
<name>Wolsley Ave and Dallinghoe</name>
<description>41356</description>
<Point><coordinates>174.76024,-36.77212,0</coordinates></Point>
</Placemark>
<Placemark>
<name>Dallinghoe Cres and Stanley</name>
<description>41357</description>
<Point><coordinates>174.75738,-36.77131,0</coordinates></Point>
</Placemark>
<Placemark>
<name>Richards Ave and Crown Hill</name>
<description>41354</description>
<Point><coordinates>174.75452,-36.76277,0</coordinates></Point>
</Placemark>
<Placemark>
<name>Richards Ave and Ravenwood</name>
<description>41355</description>
<Point><coordinates>174.74956,-36.7634,0</coordinates></Point>
</Placemark>
<Placemark>
<name>Forrest Hill Rd and Havelock</name>
<description>41352</description>
<Point><coordinates>174.74802,-36.76739,0</coordinates></Point>
</Placemark>
<Placemark>
<name>Forrest Hill Rd and Richards</name>
<description>41353</description>
<Point><coordinates>174.74826,-36.76489,0</coordinates></Point>
</Placemark>
<Placemark>
<name>Forrest Hill Rd and Tristrim</name>
<description>41350</description>
<Point><coordinates>174.74957,-36.77049,0</coordinates></Point>
</Placemark>
<Placemark>
<name>Forrest Hill Rd and Seine</name>
<description>41351</description>
<Point><coordinates>174.74865,-36.76852,0</coordinates></Point>
</Placemark>
<Placemark>
<name>O&#39;Brien Rd near Mcmillan Rd</name>
<description>1113</description>
<Point><coordinates>175.05815,-36.81932,0</coordinates></Point>
</Placemark>
<Placemark>
<name>228 Ponsonby Rd</name>
<description>7218</description>
<Point><coordinates>174.74505,-36.85257,0</coordinates></Point>
</Placemark>
<Placemark>
<name>215 Ponsonby Rd</name>
<description>7219</description>
<Point><coordinates>174.74502,-36.85191,0</coordinates></Point>
</Placemark>
<Placemark>
<name>500 Broadway</name>
<description>7210</description>
<Point><coordinates>174.77726,-36.87497,0</coordinates></Point>
</Placemark>
<Placemark>
<name>Opp 16 Ponsonby Rd</name>
<description>7211</description>
<Point><coordinates>174.75212,-36.8593,0</coordinates></Point>
</Placemark>
<Placemark>
<name>14 Ponsonby Rd</name>
<description>7212</description>
<Point><coordinates>174.75195,-36.85936,0</coordinates></Point>
</Placemark>
<Placemark>
<name>25 Ponsonby Rd</name>
<description>7213</description>
<Point><coordinates>174.74896,-36.85757,0</coordinates></Point>
</Placemark>
<Placemark>
<name>90 Ponsonby Rd</name>
<description>7214</description>
<Point><coordinates>174.74882,-36.85767,0</coordinates></Point>
</Placemark>
<Placemark>
<name>95 Ponsonby Rd</name>
<description>7215</description>
<Point><coordinates>174.74717,-36.85659,0</coordinates></Point>
</Placemark>
<Placemark>
<name>136 Ponsonby Rd</name>
<description>7216</description>
<Point><coordinates>174.74656,-36.85617,0</coordinates></Point>
</Placemark>
<Placemark>
<name>167 Ponsonby Rd</name>
<description>7217</description>
<Point><coordinates>174.74598,-36.85444,0</coordinates></Point>
</Placemark>
<Placemark>
<name>45 Bradbury Rd</name>
<description>6217</description>
<Point><coordinates>174.91531,-36.90368,0</coordinates></Point>
</Placemark>
<Placemark>
<name>130 Bradbury Rd</name>
<description>6216</description>
<Point><coordinates>174.91006,-36.90971,0</coordinates></Point>
</Placemark>
<Placemark>
<name>17 Bradbury Rd</name>
<description>6215</description>
<Point><coordinates>174.91762,-36.90221,0</coordinates></Point>
</Placemark>
<Placemark>
<name>58 Bradbury Rd</name>
<description>6214</description>
<Point><coordinates>174.91334,-36.90474,0</coordinates></Point>
</Placemark>
<Placemark>
<name>141 Aviemore Dr</name>
<description>6213</description>
<Point><coordinates>174.90711,-36.91067,0</coordinates></Point>
</Placemark>
<Placemark>
<name>172 Millhouse Dr</name>
<description>6212</description>
<Point><coordinates>174.9143,-36.91984,0</coordinates></Point>
</Placemark>
<Placemark>
<name>Opp 66 Aviemore Dr</name>
<description>6211</description>
<Point><coordinates>174.905,-36.90333,0</coordinates></Point>
</Placemark>
<Placemark>
<name>Opp 68 Millhouse Dr</name>
<description>6210</description>
<Point><coordinates>174.9196,-36.91635,0</coordinates></Point>
</Placemark>
<Placemark>
<name>69 Bradbury Rd</name>
<description>6219</description>
<Point><coordinates>174.9132,-36.90474,0</coordinates></Point>
</Placemark>
<Placemark>
<name>34 Lexington Dr</name>
<description>6218</description>
<Point><coordinates>174.91567,-36.90547,0</coordinates></Point>
</Placemark>
<Placemark>
<name>177 Carnoustie Dr</name>
<description>6819</description>
<Point><coordinates>174.88231,-37.05321,0</coordinates></Point>
</Placemark>
<Placemark>
<name>158 Russell Rd</name>
<description>6818</description>
<Point><coordinates>174.87902,-37.01909,0</coordinates></Point>
</Placemark>
<Placemark>
<name>Onewa Rd and Valley</name>
<description>41178</description>
<Point><coordinates>174.73539,-36.81031,0</coordinates></Point>
</Placemark>
<Placemark>
<name>Onewa Rd and Park</name>
<description>41179</description>
<Point><coordinates>174.73266,-36.81015,0</coordinates></Point>
</Placemark>
<Placemark>
<name>63 Huia Rd</name>
<description>6811</description>
<Point><coordinates>174.86735,-36.97026,0</coordinates></Point>
</Placemark>
<Placemark>
<name>56 Tington Ave</name>
<description>6810</description>
<Point><coordinates>174.89655,-37.04392,0</coordinates></Point>
</Placemark>
<Placemark>
<name>93 Tui Rd</name>
<description>6813</description>
<Point><coordinates>174.87054,-36.97319,0</coordinates></Point>
</Placemark>
<Placemark>
<name>Queen St and Stafford</name>
<description>41171</description>
<Point><coordinates>174.74554,-36.81633,0</coordinates></Point>
</Placemark>
<Placemark>
<name>Onewa Rd and Seaview</name>
<description>41176</description>
<Point><coordinates>174.73785,-36.81042,0</coordinates></Point>
</Placemark>
<Placemark>
<name>46 Russell Rd</name>
<description>6814</description>
<Point><coordinates>174.88895,-37.02343,0</coordinates></Point>
</Placemark>
<Placemark>
<name>129 Carnoustie Dr</name>
<description>6817</description>
<Point><coordinates>174.88499,-37.05476,0</coordinates></Point>
</Placemark>
<Placemark>
<name>132 Russell Rd</name>
<description>6816</description>
<Point><coordinates>174.88179,-37.02059,0</coordinates></Point>
</Placemark>
<Placemark>
<name>Rakino Ferry Terminal</name>
<description>9750</description>
<Point><coordinates>174.95263,-36.72629,0</coordinates></Point>
</Placemark>
<Placemark>
<name>Titirangi Rd and Cezanne Pl</name>
<description>21426</description>
<Point><coordinates>174.66647,-36.91701,0</coordinates></Point>
</Placemark>
<Placemark>
<name>Titirangi Rd and Old Titirangi</name>
<description>21424</description>
<Point><coordinates>174.66503,-36.91809,0</coordinates></Point>
</Placemark>
<Placemark>
<name>Titirangi Rd and Golf</name>
<description>21422</description>
<Point><coordinates>174.66246,-36.92616,0</coordinates></Point>
</Placemark>
<Placemark>
<name>Titirangi Rd and Pleasant</name>
<description>21423</description>
<Point><coordinates>174.66118,-36.92144,0</coordinates></Point>
</Placemark>
<Placemark>
<name>330 Titirangi Rd</name>
<description>21420</description>
<Point><coordinates>174.66046,-36.93094,0</coordinates></Point>
</Placemark>
<Placemark>
<name>Titirangi Rd and Highland</name>
<description>21421</description>
<Point><coordinates>174.6613,-36.92769,0</coordinates></Point>
</Placemark>
<Placemark>
<name>Whangaparaoa Rd near Blue Heron Rise</name>
<description>4659</description>
<Point><coordinates>174.71752,-36.62101,0</coordinates></Point>
</Placemark>
<Placemark>
<name>116 Titirangi Rd</name>
<description>21428</description>
<Point><coordinates>174.66869,-36.91611,0</coordinates></Point>
</Placemark>
<Placemark>
<name>Titirangi Rd and Gardner</name>
<description>21429</description>
<Point><coordinates>174.67332,-36.91305,0</coordinates></Point>
</Placemark>
<Placemark>
<name>674 Mt Albert Rd</name>
<description>8848</description>
<Point><coordinates>174.77012,-36.91071,0</coordinates></Point>
</Placemark>
<Placemark>
<name>641 Mt Albert Rd</name>
<description>8849</description>
<Point><coordinates>174.76815,-36.91042,0</coordinates></Point>
</Placemark>
<Placemark>
<name>522 Mt Albert Rd</name>
<description>8840</description>
<Point><coordinates>174.75394,-36.90924,0</coordinates></Point>
</Placemark>
<Placemark>
<name>437 Mt Albert Rd</name>
<description>8841</description>
<Point><coordinates>174.74829,-36.90671,0</coordinates></Point>
</Placemark>
<Placemark>
<name>Opp 535 Mt Albert Rd</name>
<description>8842</description>
<Point><coordinates>174.75785,-36.90914,0</coordinates></Point>
</Placemark>
<Placemark>
<name>471 Mt Albert Rd</name>
<description>8843</description>
<Point><coordinates>174.75148,-36.90869,0</coordinates></Point>
</Placemark>
<Placemark>
<name>604 Mt Albert Rd</name>
<description>8844</description>
<Point><coordinates>174.76394,-36.90947,0</coordinates></Point>
</Placemark>
<Placemark>
<name>515 Mt Albert Rd</name>
<description>8845</description>
<Point><coordinates>174.75633,-36.90939,0</coordinates></Point>
</Placemark>
<Placemark>
<name>646 Mt Albert Rd</name>
<description>8846</description>
<Point><coordinates>174.7674,-36.91016,0</coordinates></Point>
</Placemark>
<Placemark>
<name>551 Mt Albert Rd</name>
<description>8847</description>
<Point><coordinates>174.76149,-36.90918,0</coordinates></Point>
</Placemark>
<Placemark>
<name>73 Brighton Rd</name>
<description>7669</description>
<Point><coordinates>174.78822,-36.86155,0</coordinates></Point>
</Placemark>
<Placemark>
<name>153 Portland Rd</name>
<description>7668</description>
<Point><coordinates>174.79619,-36.86767,0</coordinates></Point>
</Placemark>
<Placemark>
<name>13 Canterbury Pl</name>
<description>7661</description>
<Point><coordinates>174.78826,-36.85401,0</coordinates></Point>
</Placemark>
<Placemark>
<name>40 Brighton Rd</name>
<description>7660</description>
<Point><coordinates>174.7869,-36.85994,0</coordinates></Point>
</Placemark>
<Placemark>
<name>Opp 61 St Stephens Ave</name>
<description>7663</description>
<Point><coordinates>174.78761,-36.85617,0</coordinates></Point>
</Placemark>
<Placemark>
<name>76 Brighton Rd</name>
<description>7662</description>
<Point><coordinates>174.78843,-36.86191,0</coordinates></Point>
</Placemark>
<Placemark>
<name>16 St Stephens Ave</name>
<description>7665</description>
<Point><coordinates>174.78446,-36.85822,0</coordinates></Point>
</Placemark>
<Placemark>
<name>Opp 15 Shore Rd</name>
<description>7664</description>
<Point><coordinates>174.78906,-36.86515,0</coordinates></Point>
</Placemark>
<Placemark>
<name>35 Brighton Rd</name>
<description>7667</description>
<Point><coordinates>174.78656,-36.85984,0</coordinates></Point>
</Placemark>
<Placemark>
<name>199 Portland Rd</name>
<description>7666</description>
<Point><coordinates>174.79626,-36.86474,0</coordinates></Point>
</Placemark>
<Placemark>
<name>Opp 32 White Swan Rd</name>
<description>8919</description>
<Point><coordinates>174.72561,-36.91416,0</coordinates></Point>
</Placemark>
<Placemark>
<name>Weiti and Hibiscus Coast Hwy</name>
<description>41684</description>
<Point><coordinates>174.69832,-36.59243,0</coordinates></Point>
</Placemark>
<Placemark>
<name>Hibiscus Coast Hwy and Moana</name>
<description>41685</description>
<Point><coordinates>174.69601,-36.5858,0</coordinates></Point>
</Placemark>
<Placemark>
<name>398 Hibiscus Coast Hwy</name>
<description>41686</description>
<Point><coordinates>174.69382,-36.58297,0</coordinates></Point>
</Placemark>
<Placemark>
<name>Hibiscus Coast Hwy and Moffat</name>
<description>41680</description>
<Point><coordinates>174.69199,-36.60406,0</coordinates></Point>
</Placemark>
<Placemark>
<name>Hibiscus Coast Hwy and Red Beach</name>
<description>41681</description>
<Point><coordinates>174.69371,-36.60268,0</coordinates></Point>
</Placemark>
<Placemark>
<name>Hibiscus Coast Hwy and Centreway</name>
<description>41682</description>
<Point><coordinates>174.69824,-36.59865,0</coordinates></Point>
</Placemark>
<Placemark>
<name>Hibiscus Coast Hwy and Beach</name>
<description>41683</description>
<Point><coordinates>174.69919,-36.594,0</coordinates></Point>
</Placemark>
<Placemark>
<name>65 Trafalgar St</name>
<description>1763</description>
<Point><coordinates>174.77486,-36.91679,0</coordinates></Point>
</Placemark>
<Placemark>
<name>Panmure Interchange Platform 4</name>
<description>1760</description>
<Point><coordinates>174.84916,-36.89832,0</coordinates></Point>
</Placemark>
<Placemark>
<name>Panmure Interchange Platform 5</name>
<description>1761</description>
<Point><coordinates>174.84898,-36.89809,0</coordinates></Point>
</Placemark>
<Placemark>
<name>Hibiscus Coast Hwy and Noel</name>
<description>41688</description>
<Point><coordinates>174.6922,-36.57916,0</coordinates></Point>
</Placemark>
<Placemark>
<name>Hibiscus Coast Hwy and Northbridge</name>
<description>41689</description>
<Point><coordinates>174.69069,-36.57557,0</coordinates></Point>
</Placemark>
<Placemark>
<name>75-77 Greenlane Rd</name>
<description>1765</description>
<Point><coordinates>174.80048,-36.88687,0</coordinates></Point>
</Placemark>
<Placemark>
<name>Favona Rd/Harania Ave</name>
<description>51416</description>
<Point><coordinates>174.80889,-36.94897,0</coordinates></Point>
</Placemark>
<Placemark>
<name>Pt Chevalier Shops</name>
<description>11119</description>
<Point><coordinates>174.70986,-36.86993,0</coordinates></Point>
</Placemark>
<Placemark>
<name>Great North Rd and Huia</name>
<description>11118</description>
<Point><coordinates>174.71125,-36.87023,0</coordinates></Point>
</Placemark>
<Placemark>
<name>22 Belgium St</name>
<description>1542</description>
<Point><coordinates>175.04667,-36.79583,0</coordinates></Point>
</Placemark>
<Placemark>
<name>Motions Rd opp Pasadena School</name>
<description>1540</description>
<Point><coordinates>174.71911,-36.8661,0</coordinates></Point>
</Placemark>
<Placemark>
<name>Everglade Dr and Banksia</name>
<description>51114</description>
<Point><coordinates>174.89671,-36.99147,0</coordinates></Point>
</Placemark>
<Placemark>
<name>Great North Rd and Surrey Cr</name>
<description>11111</description>
<Point><coordinates>174.73492,-36.86389,0</coordinates></Point>
</Placemark>
<Placemark>
<name>Great North Rd and Coleridge</name>
<description>11110</description>
<Point><coordinates>174.73994,-36.86699,0</coordinates></Point>
</Placemark>
<Placemark>
<name>Great North Rd and Stadium</name>
<description>11113</description>
<Point><coordinates>174.72851,-36.86769,0</coordinates></Point>
</Placemark>
<Placemark>
<name>Great North Rd and Tuarangi</name>
<description>11112</description>
<Point><coordinates>174.73094,-36.86615,0</coordinates></Point>
</Placemark>
<Placemark>
<name>Great North Rd and Motions</name>
<description>11115</description>
<Point><coordinates>174.71954,-36.86804,0</coordinates></Point>
</Placemark>
<Placemark>
<name>Great North Rd and Western Springs Park</name>
<description>11114</description>
<Point><coordinates>174.72483,-36.86821,0</coordinates></Point>
</Placemark>
<Placemark>
<name>Great North Rd and Walmer</name>
<description>11117</description>
<Point><coordinates>174.71336,-36.86923,0</coordinates></Point>
</Placemark>
<Placemark>
<name>Great North Rd and Premier</name>
<description>11116</description>
<Point><coordinates>174.71565,-36.86862,0</coordinates></Point>
</Placemark>
<Placemark>
<name>377 Manukau Rd</name>
<description>8711</description>
<Point><coordinates>174.77469,-36.89162,0</coordinates></Point>
</Placemark>
<Placemark>
<name>352 Manukau Rd</name>
<description>8712</description>
<Point><coordinates>174.77511,-36.89001,0</coordinates></Point>
</Placemark>
<Placemark>
<name>507 Manukau Rd</name>
<description>8713</description>
<Point><coordinates>174.77381,-36.89571,0</coordinates></Point>
</Placemark>
<Placemark>
<name>384 Manukau Rd</name>
<description>8714</description>
<Point><coordinates>174.77465,-36.89261,0</coordinates></Point>
</Placemark>
<Placemark>
<name>539 Manukau Rd</name>
<description>8715</description>
<Point><coordinates>174.77355,-36.89779,0</coordinates></Point>
</Placemark>
<Placemark>
<name>484 Manukau Rd</name>
<description>8716</description>
<Point><coordinates>174.77419,-36.89469,0</coordinates></Point>
</Placemark>
<Placemark>
<name>Opp 604 Manukau Rd</name>
<description>8717</description>
<Point><coordinates>174.77332,-36.90056,0</coordinates></Point>
</Placemark>
<Placemark>
<name>552 Manukau Rd</name>
<description>8718</description>
<Point><coordinates>174.77371,-36.89779,0</coordinates></Point>
</Placemark>
<Placemark>
<name>607 Manukau Rd</name>
<description>8719</description>
<Point><coordinates>174.77391,-36.903,0</coordinates></Point>
</Placemark>
<Placemark>
<name>Prince Regent Dr and Imogene</name>
<description>31575</description>
<Point><coordinates>174.89774,-36.89168,0</coordinates></Point>
</Placemark>
<Placemark>
<name>Prince Regent Dr and Galloway</name>
<description>31574</description>
<Point><coordinates>174.89719,-36.89565,0</coordinates></Point>
</Placemark>
<Placemark>
<name>Prince Regent Dr and Himalaya</name>
<description>31577</description>
<Point><coordinates>174.89664,-36.88674,0</coordinates></Point>
</Placemark>
<Placemark>
<name>Prince Regent Dr and Birman</name>
<description>31576</description>
<Point><coordinates>174.89589,-36.88941,0</coordinates></Point>
</Placemark>
<Placemark>
<name>Glenmore Rd and Elimar</name>
<description>31571</description>
<Point><coordinates>174.88794,-36.89706,0</coordinates></Point>
</Placemark>
<Placemark>
<name>Glenmore Rd and Hamish</name>
<description>31570</description>
<Point><coordinates>174.88728,-36.89932,0</coordinates></Point>
</Placemark>
<Placemark>
<name>Butley Drv and Stanniland</name>
<description>31573</description>
<Point><coordinates>174.89423,-36.89737,0</coordinates></Point>
</Placemark>
<Placemark>
<name>Butley Drv and Glenmore</name>
<description>31572</description>
<Point><coordinates>174.89125,-36.89656,0</coordinates></Point>
</Placemark>
<Placemark>
<name>Sunderlands Rd and Loloma</name>
<description>31579</description>
<Point><coordinates>174.90315,-36.88481,0</coordinates></Point>
</Placemark>
<Placemark>
<name>Prince Regent Dr and Pigeon Mountain</name>
<description>31578</description>
<Point><coordinates>174.90041,-36.88424,0</coordinates></Point>
</Placemark>
<Placemark>
<name>Coates Ave near Nehu St</name>
<description>7880</description>
<Point><coordinates>174.82092,-36.86104,0</coordinates></Point>
</Placemark>
<Placemark>
<name>16 Kupe St</name>
<description>7883</description>
<Point><coordinates>174.82411,-36.86076,0</coordinates></Point>
</Placemark>
<Placemark>
<name>58 Waimumu Rd</name>
<description>5618</description>
<Point><coordinates>174.62101,-36.84698,0</coordinates></Point>
</Placemark>
<Placemark>
<name>Triangle Rd near Lincoln Park Ave</name>
<description>5619</description>
<Point><coordinates>174.62024,-36.83995,0</coordinates></Point>
</Placemark>
<Placemark>
<name>181 Wiseley Rd</name>
<description>5719</description>
<Point><coordinates>174.63961,-36.8103,0</coordinates></Point>
</Placemark>
<Placemark>
<name>104 Reynella Dr</name>
<description>5612</description>
<Point><coordinates>174.61065,-36.84291,0</coordinates></Point>
</Placemark>
<Placemark>
<name>379 Triangle Rd</name>
<description>5613</description>
<Point><coordinates>174.62929,-36.85063,0</coordinates></Point>
</Placemark>
<Placemark>
<name>62 Reynella Dr</name>
<description>5610</description>
<Point><coordinates>174.61022,-36.84057,0</coordinates></Point>
</Placemark>
<Placemark>
<name>14 Waimumu Rd</name>
<description>5616</description>
<Point><coordinates>174.6246,-36.84498,0</coordinates></Point>
</Placemark>
<Placemark>
<name>Opp 246 Triangle Rd</name>
<description>5617</description>
<Point><coordinates>174.6224,-36.84251,0</coordinates></Point>
</Placemark>
<Placemark>
<name>2 Hewlett Rd</name>
<description>5614</description>
<Point><coordinates>174.61084,-36.84436,0</coordinates></Point>
</Placemark>
<Placemark>
<name>Albrecht Ave and Drew</name>
<description>11767</description>
<Point><coordinates>174.73903,-36.92693,0</coordinates></Point>
</Placemark>
<Placemark>
<name>158 Coates Ave</name>
<description>7887</description>
<Point><coordinates>174.82049,-36.86061,0</coordinates></Point>
</Placemark>
<Placemark>
<name>53 Coates Ave</name>
<description>7886</description>
<Point><coordinates>174.81465,-36.85628,0</coordinates></Point>
</Placemark>
<Placemark>
<name>155 Fred Taylor Dr</name>
<description>5715</description>
<Point><coordinates>174.59635,-36.79924,0</coordinates></Point>
</Placemark>
<Placemark>
<name>The Drive and Heywood</name>
<description>11568</description>
<Point><coordinates>174.76769,-36.90111,0</coordinates></Point>
</Placemark>
<Placemark>
<name>Buckley Rd and Selwyn</name>
<description>11569</description>
<Point><coordinates>174.76634,-36.90188,0</coordinates></Point>
</Placemark>
<Placemark>
<name>Queenstown Rd and Herd</name>
<description>11560</description>
<Point><coordinates>174.76842,-36.91735,0</coordinates></Point>
</Placemark>
<Placemark>
<name>Queenstown Rd and Southern M&#39;way</name>
<description>11561</description>
<Point><coordinates>174.76768,-36.92016,0</coordinates></Point>
</Placemark>
<Placemark>
<name>St Andrews Rd and Aberfoyle</name>
<description>11562</description>
<Point><coordinates>174.76645,-36.89016,0</coordinates></Point>
</Placemark>
<Placemark>
<name>79 to 80 St Andrews Rd</name>
<description>11563</description>
<Point><coordinates>174.76565,-36.89273,0</coordinates></Point>
</Placemark>
<Placemark>
<name>St Andrews Rd and Watling</name>
<description>11564</description>
<Point><coordinates>174.76517,-36.8943,0</coordinates></Point>
</Placemark>
<Placemark>
<name>St Andrews Rd and Empire</name>
<description>11565</description>
<Point><coordinates>174.7642,-36.89727,0</coordinates></Point>
</Placemark>
<Placemark>
<name>Empire Rd and Coronation</name>
<description>11566</description>
<Point><coordinates>174.76643,-36.89795,0</coordinates></Point>
</Placemark>
<Placemark>
<name>The Drive and Empire</name>
<description>11567</description>
<Point><coordinates>174.76844,-36.89875,0</coordinates></Point>
</Placemark>
<Placemark>
<name>20 Waimai Ave</name>
<description>6778</description>
<Point><coordinates>174.8615,-37.04661,0</coordinates></Point>
</Placemark>
<Placemark>
<name>Chapel Rd opp Botany Secondary College</name>
<description>6779</description>
<Point><coordinates>174.91509,-36.93379,0</coordinates></Point>
</Placemark>
<Placemark>
<name>Opp 521 Weymouth Rd</name>
<description>6774</description>
<Point><coordinates>174.86367,-37.04632,0</coordinates></Point>
</Placemark>
<Placemark>
<name>251 Weymouth Rd</name>
<description>6775</description>
<Point><coordinates>174.87175,-37.03294,0</coordinates></Point>
</Placemark>
<Placemark>
<name>307 Weymouth Rd</name>
<description>6777</description>
<Point><coordinates>174.86862,-37.03685,0</coordinates></Point>
</Placemark>
<Placemark>
<name>609 Great South Rd Manukau</name>
<description>6771</description>
<Point><coordinates>174.8804,-36.98593,0</coordinates></Point>
</Placemark>
<Placemark>
<name>500 Weymouth Rd</name>
<description>6772</description>
<Point><coordinates>174.86432,-37.04398,0</coordinates></Point>
</Placemark>
<Placemark>
<name>207 Weymouth Rd</name>
<description>6773</description>
<Point><coordinates>174.87632,-37.03134,0</coordinates></Point>
</Placemark>
<Placemark>
<name>261 Whangaparaoa Rd</name>
<description>4665</description>
<Point><coordinates>174.71143,-36.61168,0</coordinates></Point>
</Placemark>
<Placemark>
<name>359 Albany Hwy</name>
<description>3581</description>
<Point><coordinates>174.69311,-36.74444,0</coordinates></Point>
</Placemark>
<Placemark>
<name>Opp 1433 SH 17</name>
<description>49549</description>
<Point><coordinates>174.6427,-36.6491,0</coordinates></Point>
</Placemark>
<Placemark>
<name>SH 17 near Wilkes Rd West</name>
<description>49548</description>
<Point><coordinates>174.64683,-36.64121,0</coordinates></Point>
</Placemark>
<Placemark>
<name>Whangaparaoa Rd and Shadon</name>
<description>49543</description>
<Point><coordinates>174.71486,-36.61815,0</coordinates></Point>
</Placemark>
<Placemark>
<name>378 Whangaparaoa Rd</name>
<description>49542</description>
<Point><coordinates>174.71685,-36.61952,0</coordinates></Point>
</Placemark>
<Placemark>
<name>420 Whangaparaoa Rd</name>
<description>49541</description>
<Point><coordinates>174.71866,-36.62157,0</coordinates></Point>
</Placemark>
<Placemark>
<name>470 Whangaparaoa Rd</name>
<description>49540</description>
<Point><coordinates>174.7224,-36.62481,0</coordinates></Point>
</Placemark>
<Placemark>
<name>Opp 544 Hibiscus Coast Hwy</name>
<description>49547</description>
<Point><coordinates>174.69464,-36.56527,0</coordinates></Point>
</Placemark>
<Placemark>
<name>Waiwera and The Strand</name>
<description>49546</description>
<Point><coordinates>174.70832,-36.54528,0</coordinates></Point>
</Placemark>
<Placemark>
<name>Whangaparaoa Rd and Matheson</name>
<description>49545</description>
<Point><coordinates>174.70701,-36.61165,0</coordinates></Point>
</Placemark>
<Placemark>
<name>261 Whangaparaoa Rd</name>
<description>49544</description>
<Point><coordinates>174.71143,-36.61168,0</coordinates></Point>
</Placemark>
<Placemark>
<name>41 Totaravale Dr</name>
<description>3689</description>
<Point><coordinates>174.73391,-36.76018,0</coordinates></Point>
</Placemark>
<Placemark>
<name>West Hoe Rd Outside Evelyn Page</name>
<description>3688</description>
<Point><coordinates>174.68597,-36.58306,0</coordinates></Point>
</Placemark>
<Placemark>
<name>293 Albany Hwy</name>
<description>3583</description>
<Point><coordinates>174.69372,-36.74977,0</coordinates></Point>
</Placemark>
<Placemark>
<name>Opp 6 Link Dr</name>
<description>3683</description>
<Point><coordinates>174.73792,-36.76816,0</coordinates></Point>
</Placemark>
<Placemark>
<name>Glenfield College Bus Bay (Courts)</name>
<description>3682</description>
<Point><coordinates>174.71271,-36.78014,0</coordinates></Point>
</Placemark>
<Placemark>
<name>161 Target Rd</name>
<description>3681</description>
<Point><coordinates>174.73591,-36.76794,0</coordinates></Point>
</Placemark>
<Placemark>
<name>Roseberry Rd (on request)</name>
<description>3680</description>
<Point><coordinates>174.71482,-36.81017,0</coordinates></Point>
</Placemark>
<Placemark>
<name>3 Totaravale Dr</name>
<description>3687</description>
<Point><coordinates>174.73687,-36.76213,0</coordinates></Point>
</Placemark>
<Placemark>
<name>Albany Hwy opp Wentworth Park</name>
<description>3686</description>
<Point><coordinates>174.69263,-36.74192,0</coordinates></Point>
</Placemark>
<Placemark>
<name>17 Link Dr</name>
<description>3685</description>
<Point><coordinates>174.73829,-36.76563,0</coordinates></Point>
</Placemark>
<Placemark>
<name>66 Tauhinu Rd</name>
<description>3684</description>
<Point><coordinates>174.67314,-36.78001,0</coordinates></Point>
</Placemark>
<Placemark>
<name>Opp 299 Great South Rd Papakura</name>
<description>2518</description>
<Point><coordinates>174.94392,-37.06586,0</coordinates></Point>
</Placemark>
<Placemark>
<name>363 Great South Rd Papakura</name>
<description>2519</description>
<Point><coordinates>174.94302,-37.07141,0</coordinates></Point>
</Placemark>
<Placemark>
<name>Opp 355 Great South Rd Papakura</name>
<description>2514</description>
<Point><coordinates>174.94329,-37.07062,0</coordinates></Point>
</Placemark>
<Placemark>
<name>431 Great South Rd Papakura</name>
<description>2515</description>
<Point><coordinates>174.94226,-37.07948,0</coordinates></Point>
</Placemark>
<Placemark>
<name>Opp 343 Great South Rd Papakura</name>
<description>2516</description>
<Point><coordinates>174.94352,-37.06893,0</coordinates></Point>
</Placemark>
<Placemark>
<name>387 Great South Rd Papakura</name>
<description>2517</description>
<Point><coordinates>174.94253,-37.07566,0</coordinates></Point>
</Placemark>
<Placemark>
<name>418 Great South Rd Papakura</name>
<description>2510</description>
<Point><coordinates>174.94239,-37.07943,0</coordinates></Point>
</Placemark>
<Placemark>
<name>571 Great South Rd Papakura</name>
<description>2511</description>
<Point><coordinates>174.94454,-37.09156,0</coordinates></Point>
</Placemark>
<Placemark>
<name>374 Great South Rd Papakura</name>
<description>2512</description>
<Point><coordinates>174.94257,-37.07667,0</coordinates></Point>
</Placemark>
<Placemark>
<name>465 Great South Rd Papakura</name>
<description>2513</description>
<Point><coordinates>174.94203,-37.08279,0</coordinates></Point>
</Placemark>
<Placemark>
<name>59 Northboro Rd</name>
<description>3531</description>
<Point><coordinates>174.78364,-36.8026,0</coordinates></Point>
</Placemark>
<Placemark>
<name>Bayswater Marine Tce</name>
<description>3530</description>
<Point><coordinates>174.7673,-36.82092,0</coordinates></Point>
</Placemark>
<Placemark>
<name>21 Northboro Rd</name>
<description>3533</description>
<Point><coordinates>174.7802,-36.80084,0</coordinates></Point>
</Placemark>
<Placemark>
<name>Opp 3 Bayswater Ave</name>
<description>3532</description>
<Point><coordinates>174.7694,-36.81605,0</coordinates></Point>
</Placemark>
<Placemark>
<name>1 Northboro Rd</name>
<description>3535</description>
<Point><coordinates>174.77789,-36.79966,0</coordinates></Point>
</Placemark>
<Placemark>
<name>18 Bayswater Ave</name>
<description>3534</description>
<Point><coordinates>174.7715,-36.81564,0</coordinates></Point>
</Placemark>
<Placemark>
<name>3 Walter St</name>
<description>3537</description>
<Point><coordinates>174.77345,-36.80265,0</coordinates></Point>
</Placemark>
<Placemark>
<name>40 Bayswater Ave</name>
<description>3536</description>
<Point><coordinates>174.77363,-36.81523,0</coordinates></Point>
</Placemark>
<Placemark>
<name>2 Nandana Dr</name>
<description>5054</description>
<Point><coordinates>174.64598,-36.92037,0</coordinates></Point>
</Placemark>
<Placemark>
<name>Opp 106 Parrs Cross Rd</name>
<description>5055</description>
<Point><coordinates>174.62555,-36.90497,0</coordinates></Point>
</Placemark>
<Placemark>
<name>70 Solar Rd</name>
<description>5056</description>
<Point><coordinates>174.63496,-36.91488,0</coordinates></Point>
</Placemark>
<Placemark>
<name>17 Kashmir Rd</name>
<description>5057</description>
<Point><coordinates>174.6443,-36.92286,0</coordinates></Point>
</Placemark>
<Placemark>
<name>32 Kashmir Rd</name>
<description>5050</description>
<Point><coordinates>174.64438,-36.92286,0</coordinates></Point>
</Placemark>
<Placemark>
<name>241 Glengarry Rd</name>
<description>5051</description>
<Point><coordinates>174.62753,-36.91526,0</coordinates></Point>
</Placemark>
<Placemark>
<name>2 Kashmir Rd</name>
<description>5052</description>
<Point><coordinates>174.64484,-36.92146,0</coordinates></Point>
</Placemark>
<Placemark>
<name>141 Parrs Cross Rd</name>
<description>5053</description>
<Point><coordinates>174.62774,-36.90754,0</coordinates></Point>
</Placemark>
<Placemark>
<name>Opp 120 Kilkenny Dr</name>
<description>6887</description>
<Point><coordinates>174.91938,-36.93492,0</coordinates></Point>
</Placemark>
<Placemark>
<name>May Rd near Stoddard Rd</name>
<description>7896</description>
<Point><coordinates>174.7351,-36.90885,0</coordinates></Point>
</Placemark>
<Placemark>
<name>Valley Rd and Oban</name>
<description>41543</description>
<Point><coordinates>174.74754,-36.71228,0</coordinates></Point>
</Placemark>
<Placemark>
<name>Anzac Rd and Clyde</name>
<description>41541</description>
<Point><coordinates>174.74741,-36.71684,0</coordinates></Point>
</Placemark>
<Placemark>
<name>Browns Bay Shopping Centre</name>
<description>41540</description>
<Point><coordinates>174.7483,-36.71533,0</coordinates></Point>
</Placemark>
<Placemark>
<name>Beach Rd and Ridge</name>
<description>41547</description>
<Point><coordinates>174.74782,-36.70853,0</coordinates></Point>
</Placemark>
<Placemark>
<name>Beach Rd and Hebron</name>
<description>41546</description>
<Point><coordinates>174.74814,-36.70809,0</coordinates></Point>
</Placemark>
<Placemark>
<name>Beach Rd and Mizpah</name>
<description>41545</description>
<Point><coordinates>174.7465,-36.70937,0</coordinates></Point>
</Placemark>
<Placemark>
<name>Beach Rd and Carlilse</name>
<description>41544</description>
<Point><coordinates>174.74512,-36.71081,0</coordinates></Point>
</Placemark>
<Placemark>
<name>Beach Rd and Ellangowan</name>
<description>41549</description>
<Point><coordinates>174.75159,-36.70287,0</coordinates></Point>
</Placemark>
<Placemark>
<name>Beach Rd and Sharon</name>
<description>41548</description>
<Point><coordinates>174.75044,-36.70583,0</coordinates></Point>
</Placemark>
<Placemark>
<name>59 Frank Grey Pl</name>
<description>7897</description>
<Point><coordinates>174.85482,-36.94047,0</coordinates></Point>
</Placemark>
<Placemark>
<name>Tui St opp Matai Rd</name>
<description>1159</description>
<Point><coordinates>175.01109,-36.78561,0</coordinates></Point>
</Placemark>
<Placemark>
<name>2 Mitchell Rd</name>
<description>1158</description>
<Point><coordinates>175.02839,-36.79501,0</coordinates></Point>
</Placemark>
<Placemark>
<name>Ocean View Rd opp Tui St</name>
<description>1155</description>
<Point><coordinates>175.01086,-36.78338,0</coordinates></Point>
</Placemark>
<Placemark>
<name>12 Surfdale Rd</name>
<description>1154</description>
<Point><coordinates>175.02344,-36.79111,0</coordinates></Point>
</Placemark>
<Placemark>
<name>Tui St near Ocean View Rd</name>
<description>1157</description>
<Point><coordinates>175.01076,-36.78379,0</coordinates></Point>
</Placemark>
<Placemark>
<name>2 Miami Rd</name>
<description>1156</description>
<Point><coordinates>175.02573,-36.79318,0</coordinates></Point>
</Placemark>
<Placemark>
<name>129 Ocean View Rd</name>
<description>1151</description>
<Point><coordinates>175.007,-36.78139,0</coordinates></Point>
</Placemark>
<Placemark>
<name>134 Ocean View Rd</name>
<description>1150</description>
<Point><coordinates>175.01139,-36.78365,0</coordinates></Point>
</Placemark>
<Placemark>
<name>135 Ocean View Rd</name>
<description>1153</description>
<Point><coordinates>175.00841,-36.78159,0</coordinates></Point>
</Placemark>
<Placemark>
<name>Opp 233 Ocean View Rd</name>
<description>1152</description>
<Point><coordinates>175.02226,-36.78749,0</coordinates></Point>
</Placemark>
<Placemark>
<name>Ti Rakau and Burswood</name>
<description>31748</description>
<Point><coordinates>174.90144,-36.92785,0</coordinates></Point>
</Placemark>
<Placemark>
<name>Burswood Dr and Ti Rakau</name>
<description>31749</description>
<Point><coordinates>174.90169,-36.92617,0</coordinates></Point>
</Placemark>
<Placemark>
<name>Greenmount Dr and Parkwood</name>
<description>31746</description>
<Point><coordinates>174.90021,-36.93459,0</coordinates></Point>
</Placemark>
<Placemark>
<name>Greenmount Dr and Ti Rakau</name>
<description>31747</description>
<Point><coordinates>174.90175,-36.92837,0</coordinates></Point>
</Placemark>
<Placemark>
<name>Harris Rd and Neales</name>
<description>31744</description>
<Point><coordinates>174.89556,-36.93564,0</coordinates></Point>
</Placemark>
<Placemark>
<name>Greenmount Dr and Harris</name>
<description>31745</description>
<Point><coordinates>174.89672,-36.93492,0</coordinates></Point>
</Placemark>
<Placemark>
<name>Springs Rd and Lady Ruby</name>
<description>31742</description>
<Point><coordinates>174.8926,-36.94778,0</coordinates></Point>
</Placemark>
<Placemark>
<name>Harris Rd and Crooks</name>
<description>31743</description>
<Point><coordinates>174.89401,-36.94149,0</coordinates></Point>
</Placemark>
<Placemark>
<name>Kerwyn Ave and Andromeda</name>
<description>31740</description>
<Point><coordinates>174.88595,-36.94707,0</coordinates></Point>
</Placemark>
<Placemark>
<name>Kerwyn Ave and Springs</name>
<description>31741</description>
<Point><coordinates>174.89086,-36.94815,0</coordinates></Point>
</Placemark>
<Placemark>
<name>193 Carrington Rd</name>
<description>8035</description>
<Point><coordinates>174.71358,-36.88278,0</coordinates></Point>
</Placemark>
<Placemark>
<name>198 Carrington Rd</name>
<description>8034</description>
<Point><coordinates>174.71318,-36.88239,0</coordinates></Point>
</Placemark>
<Placemark>
<name>36 Euston Rd</name>
<description>8037</description>
<Point><coordinates>174.72878,-36.89256,0</coordinates></Point>
</Placemark>
<Placemark>
<name>25 Euston Rd</name>
<description>8036</description>
<Point><coordinates>174.72886,-36.89235,0</coordinates></Point>
</Placemark>
<Placemark>
<name>Carrington Rd opp Segar Ave</name>
<description>8031</description>
<Point><coordinates>174.71021,-36.87502,0</coordinates></Point>
</Placemark>
<Placemark>
<name>Carrington Rd near Segar Ave</name>
<description>8030</description>
<Point><coordinates>174.71031,-36.87509,0</coordinates></Point>
</Placemark>
<Placemark>
<name>Opp 150 Carrington Rd</name>
<description>8033</description>
<Point><coordinates>174.71115,-36.87951,0</coordinates></Point>
</Placemark>
<Placemark>
<name>126 Carrington Rd</name>
<description>8032</description>
<Point><coordinates>174.71119,-36.87926,0</coordinates></Point>
</Placemark>
<Placemark>
<name>6 Euston Rd</name>
<description>8039</description>
<Point><coordinates>174.73009,-36.8908,0</coordinates></Point>
</Placemark>
<Placemark>
<name>3 Euston Rd</name>
<description>8038</description>
<Point><coordinates>174.73012,-36.89068,0</coordinates></Point>
</Placemark>
<Placemark>
<name>Mt Eden Rd opp Kingsway</name>
<description>8529</description>
<Point><coordinates>174.75912,-36.90505,0</coordinates></Point>
</Placemark>
<Placemark>
<name>866 Mt Eden Rd</name>
<description>8528</description>
<Point><coordinates>174.75871,-36.90131,0</coordinates></Point>
</Placemark>
<Placemark>
<name>909 Mt Eden Rd</name>
<description>8523</description>
<Point><coordinates>174.75737,-36.89781,0</coordinates></Point>
</Placemark>
<Placemark>
<name>742 Mt Eden Rd</name>
<description>8522</description>
<Point><coordinates>174.75819,-36.89568,0</coordinates></Point>
</Placemark>
<Placemark>
<name>847 Mt Eden Rd</name>
<description>8521</description>
<Point><coordinates>174.75808,-36.89562,0</coordinates></Point>
</Placemark>
<Placemark>
<name>714 Mt Eden Rd</name>
<description>8520</description>
<Point><coordinates>174.75874,-36.89392,0</coordinates></Point>
</Placemark>
<Placemark>
<name>953 Mt Eden Rd</name>
<description>8527</description>
<Point><coordinates>174.75843,-36.90119,0</coordinates></Point>
</Placemark>
<Placemark>
<name>848 Mt Eden Rd</name>
<description>8526</description>
<Point><coordinates>174.75717,-36.8999,0</coordinates></Point>
</Placemark>
<Placemark>
<name>931 Mt Eden Rd</name>
<description>8525</description>
<Point><coordinates>174.75672,-36.89958,0</coordinates></Point>
</Placemark>
<Placemark>
<name>822 Mt Eden Rd</name>
<description>8524</description>
<Point><coordinates>174.75738,-36.89814,0</coordinates></Point>
</Placemark>
<Placemark>
<name>82 to 191 Onetangi Rd</name>
<description>61038</description>
<Point><coordinates>175.06619,-36.80149,0</coordinates></Point>
</Placemark>
<Placemark>
<name>Onetangi Rd and Waiheke</name>
<description>61035</description>
<Point><coordinates>175.08138,-36.79004,0</coordinates></Point>
</Placemark>
<Placemark>
<name>Fourth Ave and the Strand</name>
<description>61034</description>
<Point><coordinates>175.08126,-36.7885,0</coordinates></Point>
</Placemark>
<Placemark>
<name>72 to 137 Onetangi Rd</name>
<description>61037</description>
<Point><coordinates>175.06984,-36.8011,0</coordinates></Point>
</Placemark>
<Placemark>
<name>66 to 123 Onetangi Rd</name>
<description>61036</description>
<Point><coordinates>175.07158,-36.80064,0</coordinates></Point>
</Placemark>
<Placemark>
<name>Eden Tce and Trig</name>
<description>61030</description>
<Point><coordinates>175.0793,-36.79267,0</coordinates></Point>
</Placemark>
<Placemark>
<name>97 to opp 99 The Strand</name>
<description>61033</description>
<Point><coordinates>175.0749,-36.7873,0</coordinates></Point>
</Placemark>
<Placemark>
<name>28 Forrest Hill Rd</name>
<description>4298</description>
<Point><coordinates>174.74997,-36.77792,0</coordinates></Point>
</Placemark>
<Placemark>
<name>63 Grovenor Dr</name>
<description>4295</description>
<Point><coordinates>174.68155,-36.58598,0</coordinates></Point>
</Placemark>
<Placemark>
<name>78 Fitzwilliam Dr</name>
<description>4294</description>
<Point><coordinates>174.72546,-36.70036,0</coordinates></Point>
</Placemark>
<Placemark>
<name>11 Forrest Hill Rd</name>
<description>4297</description>
<Point><coordinates>174.75019,-36.7785,0</coordinates></Point>
</Placemark>
<Placemark>
<name>Maygrove Retirement Village</name>
<description>4291</description>
<Point><coordinates>174.67467,-36.59043,0</coordinates></Point>
</Placemark>
<Placemark>
<name>17 Grovenor Dr</name>
<description>4293</description>
<Point><coordinates>174.68119,-36.58346,0</coordinates></Point>
</Placemark>
<Placemark>
<name>Brightside Rd by Hibiscus Coast Centre</name>
<description>4749</description>
<Point><coordinates>174.74143,-36.62689,0</coordinates></Point>
</Placemark>
<Placemark>
<name>60 Brightside Rd</name>
<description>4748</description>
<Point><coordinates>174.73138,-36.62647,0</coordinates></Point>
</Placemark>
<Placemark>
<name>87 Stanmore Bay Rd</name>
<description>4743</description>
<Point><coordinates>174.74947,-36.62867,0</coordinates></Point>
</Placemark>
<Placemark>
<name>156 Brightside Rd</name>
<description>4742</description>
<Point><coordinates>174.74027,-36.62668,0</coordinates></Point>
</Placemark>
<Placemark>
<name>Opp 46 Stanmore Bay Rd</name>
<description>4741</description>
<Point><coordinates>174.74907,-36.63164,0</coordinates></Point>
</Placemark>
<Placemark>
<name>106 Stanmore Bay Rd</name>
<description>4740</description>
<Point><coordinates>174.7479,-36.62684,0</coordinates></Point>
</Placemark>
<Placemark>
<name>121 Stanmore Bay Rd</name>
<description>4747</description>
<Point><coordinates>174.74624,-36.62637,0</coordinates></Point>
</Placemark>
<Placemark>
<name>102 Brightside Rd</name>
<description>4746</description>
<Point><coordinates>174.73481,-36.62729,0</coordinates></Point>
</Placemark>
<Placemark>
<name>105 Stanmore Bay Rd</name>
<description>4745</description>
<Point><coordinates>174.74864,-36.62682,0</coordinates></Point>
</Placemark>
<Placemark>
<name>132 Brightside Rd</name>
<description>4744</description>
<Point><coordinates>174.73749,-36.62683,0</coordinates></Point>
</Placemark>
<Placemark>
<name>Whenuapai Airport Rd near Tamatea Ave</name>
<description>5869</description>
<Point><coordinates>174.61871,-36.79383,0</coordinates></Point>
</Placemark>
<Placemark>
<name>4070 Great North Rd</name>
<description>5868</description>
<Point><coordinates>174.6595,-36.90489,0</coordinates></Point>
</Placemark>
<Placemark>
<name>4121 Great North Rd</name>
<description>5865</description>
<Point><coordinates>174.65623,-36.90257,0</coordinates></Point>
</Placemark>
<Placemark>
<name>Vitasovich Ave near View Rd</name>
<description>5864</description>
<Point><coordinates>174.6341,-36.88614,0</coordinates></Point>
</Placemark>
<Placemark>
<name>4041 Great North Rd</name>
<description>5867</description>
<Point><coordinates>174.66009,-36.90511,0</coordinates></Point>
</Placemark>
<Placemark>
<name>4010 Great North Rd</name>
<description>5866</description>
<Point><coordinates>174.66314,-36.90757,0</coordinates></Point>
</Placemark>
<Placemark>
<name>4197 Great North Rd</name>
<description>5861</description>
<Point><coordinates>174.64944,-36.89802,0</coordinates></Point>
</Placemark>
<Placemark>
<name>Henderson Interchange</name>
<description>5860</description>
<Point><coordinates>174.63132,-36.88148,0</coordinates></Point>
</Placemark>
<Placemark>
<name>4169 Great North Rd</name>
<description>5863</description>
<Point><coordinates>174.65197,-36.89975,0</coordinates></Point>
</Placemark>
<Placemark>
<name>Vitasovich Ave by Waitakere Mega Centre</name>
<description>5862</description>
<Point><coordinates>174.63462,-36.88278,0</coordinates></Point>
</Placemark>
<Placemark>
<name>161 Whangaparaoa Rd</name>
<description>49517</description>
<Point><coordinates>174.70075,-36.61129,0</coordinates></Point>
</Placemark>
<Placemark>
<name>8 Lambie Dr</name>
<description>2182</description>
<Point><coordinates>174.87129,-36.98563,0</coordinates></Point>
</Placemark>
<Placemark>
<name>141 Wyllie Rd</name>
<description>2181</description>
<Point><coordinates>174.84749,-36.99079,0</coordinates></Point>
</Placemark>
<Placemark>
<name>1310 Whangaparaoa Rd</name>
<description>4608</description>
<Point><coordinates>174.79524,-36.60486,0</coordinates></Point>
</Placemark>
<Placemark>
<name>1331 Whangaparaoa Rd</name>
<description>4609</description>
<Point><coordinates>174.79569,-36.60484,0</coordinates></Point>
</Placemark>
<Placemark>
<name>1350 Whangaparaoa Rd</name>
<description>4606</description>
<Point><coordinates>174.79843,-36.60354,0</coordinates></Point>
</Placemark>
<Placemark>
<name>1367 Whangaparaoa Rd</name>
<description>4607</description>
<Point><coordinates>174.79851,-36.60358,0</coordinates></Point>
</Placemark>
<Placemark>
<name>1392 Whangaparaoa Rd</name>
<description>4604</description>
<Point><coordinates>174.80204,-36.60359,0</coordinates></Point>
</Placemark>
<Placemark>
<name>18 Ronwood Ave</name>
<description>2188</description>
<Point><coordinates>174.87847,-36.99046,0</coordinates></Point>
</Placemark>
<Placemark>
<name>1427 Whangaparaoa Rd</name>
<description>4603</description>
<Point><coordinates>174.80471,-36.60363,0</coordinates></Point>
</Placemark>
<Placemark>
<name>1454 Whangaparaoa Rd</name>
<description>4600</description>
<Point><coordinates>174.80704,-36.6026,0</coordinates></Point>
</Placemark>
<Placemark>
<name>1453 Whangaparaoa Rd</name>
<description>4601</description>
<Point><coordinates>174.807,-36.60266,0</coordinates></Point>
</Placemark>
<Placemark>
<name>41 Burbank Ave</name>
<description>6907</description>
<Point><coordinates>174.86626,-37.02121,0</coordinates></Point>
</Placemark>
<Placemark>
<name>38 Lambie Dr</name>
<description>6906</description>
<Point><coordinates>174.87366,-36.9902,0</coordinates></Point>
</Placemark>
<Placemark>
<name>21 Burbank Ave</name>
<description>6905</description>
<Point><coordinates>174.8692,-37.02111,0</coordinates></Point>
</Placemark>
<Placemark>
<name>Diorella Dr and Almay</name>
<description>31834</description>
<Point><coordinates>174.88887,-36.98528,0</coordinates></Point>
</Placemark>
<Placemark>
<name>74 Wiri Station Rd</name>
<description>6904</description>
<Point><coordinates>174.87497,-36.99859,0</coordinates></Point>
</Placemark>
<Placemark>
<name>89 Carnoustie Dr</name>
<description>51128</description>
<Point><coordinates>174.88797,-37.05383,0</coordinates></Point>
</Placemark>
<Placemark>
<name>Carnoustie Dr and Pinehurst</name>
<description>51129</description>
<Point><coordinates>174.89071,-37.05054,0</coordinates></Point>
</Placemark>
<Placemark>
<name>44 Middlemore Crescent</name>
<description>2230</description>
<Point><coordinates>174.84246,-36.96612,0</coordinates></Point>
</Placemark>
<Placemark>
<name>Hadley Wood Dr and Scotsmoor</name>
<description>51124</description>
<Point><coordinates>174.8773,-37.05174,0</coordinates></Point>
</Placemark>
<Placemark>
<name>Carnoustie Dr and Hadley Wood</name>
<description>51125</description>
<Point><coordinates>174.88092,-37.0518,0</coordinates></Point>
</Placemark>
<Placemark>
<name>Carnoustie Dr and Stannes</name>
<description>51126</description>
<Point><coordinates>174.88231,-37.05321,0</coordinates></Point>
</Placemark>
<Placemark>
<name>Carnoustie Dr and Stannes</name>
<description>51127</description>
<Point><coordinates>174.88499,-37.05476,0</coordinates></Point>
</Placemark>
<Placemark>
<name>Wattle Farm Rd near Golf Club</name>
<description>51120</description>
<Point><coordinates>174.88861,-37.04893,0</coordinates></Point>
</Placemark>
<Placemark>
<name>Wattle Farm Rd and Fergy</name>
<description>51121</description>
<Point><coordinates>174.8848,-37.04919,0</coordinates></Point>
</Placemark>
<Placemark>
<name>Turnberry Dr and Wattle Farm</name>
<description>51122</description>
<Point><coordinates>174.88087,-37.04982,0</coordinates></Point>
</Placemark>
<Placemark>
<name>Turnberry Dr and Scotsmoor</name>
<description>51123</description>
<Point><coordinates>174.87598,-37.0495,0</coordinates></Point>
</Placemark>
<Placemark>
<name>2 Wood Ave</name>
<description>2232</description>
<Point><coordinates>174.92426,-36.90538,0</coordinates></Point>
</Placemark>
<Placemark>
<name>87 Halsey Dr</name>
<description>8684</description>
<Point><coordinates>174.71607,-36.93189,0</coordinates></Point>
</Placemark>
<Placemark>
<name>9 Dannemora Dr</name>
<description>2235</description>
<Point><coordinates>174.9168,-36.92988,0</coordinates></Point>
</Placemark>
<Placemark>
<name>40 Moncrieff Ave</name>
<description>6900</description>
<Point><coordinates>174.86022,-37.02351,0</coordinates></Point>
</Placemark>
<Placemark>
<name>Hill Rd opp Elmwood Village</name>
<description>2234</description>
<Point><coordinates>174.9112,-37.01285,0</coordinates></Point>
</Placemark>
<Placemark>
<name>140 Chapel Rd</name>
<description>2236</description>
<Point><coordinates>174.90576,-36.96755,0</coordinates></Point>
</Placemark>
<Placemark>
<name>5 Halsey Dr</name>
<description>8688</description>
<Point><coordinates>174.71821,-36.92563,0</coordinates></Point>
</Placemark>
<Placemark>
<name>86 Halsey Dr</name>
<description>8689</description>
<Point><coordinates>174.71622,-36.93195,0</coordinates></Point>
</Placemark>
<Placemark>
<name>139 Great South Rd</name>
<description>7609</description>
<Point><coordinates>174.78889,-36.88664,0</coordinates></Point>
</Placemark>
<Placemark>
<name>41 Gills Rd</name>
<description>6187</description>
<Point><coordinates>174.91588,-36.89012,0</coordinates></Point>
</Placemark>
<Placemark>
<name>52 Priestley Dr</name>
<description>6186</description>
<Point><coordinates>174.91288,-36.88703,0</coordinates></Point>
</Placemark>
<Placemark>
<name>Bleakhouse Rd near Haseler Cres</name>
<description>6185</description>
<Point><coordinates>174.92104,-36.88818,0</coordinates></Point>
</Placemark>
<Placemark>
<name>130 Middlefield Dr</name>
<description>6184</description>
<Point><coordinates>174.91595,-36.95471,0</coordinates></Point>
</Placemark>
<Placemark>
<name>105 Cascades Rd</name>
<description>6183</description>
<Point><coordinates>174.89955,-36.91074,0</coordinates></Point>
</Placemark>
<Placemark>
<name>64b Diorella Dr</name>
<description>6182</description>
<Point><coordinates>174.88887,-36.98528,0</coordinates></Point>
</Placemark>
<Placemark>
<name>49 Cascades Rd</name>
<description>6181</description>
<Point><coordinates>174.8973,-36.90778,0</coordinates></Point>
</Placemark>
<Placemark>
<name>50 Gills Rd</name>
<description>6180</description>
<Point><coordinates>174.91639,-36.89001,0</coordinates></Point>
</Placemark>
<Placemark>
<name>80 Everglade Dr</name>
<description>6804</description>
<Point><coordinates>174.89446,-36.99931,0</coordinates></Point>
</Placemark>
<Placemark>
<name>77 Te Irirangi Dr</name>
<description>6189</description>
<Point><coordinates>174.8898,-36.98397,0</coordinates></Point>
</Placemark>
<Placemark>
<name>298 Ti Rakau Dr</name>
<description>6188</description>
<Point><coordinates>174.89598,-36.92662,0</coordinates></Point>
</Placemark>
<Placemark>
<name>Pupuke Rd and Tilden</name>
<description>41162</description>
<Point><coordinates>174.73024,-36.80248,0</coordinates></Point>
</Placemark>
<Placemark>
<name>108 Everglade Dr</name>
<description>6802</description>
<Point><coordinates>174.89605,-37.00139,0</coordinates></Point>
</Placemark>
<Placemark>
<name>248 Great South Rd</name>
<description>7608</description>
<Point><coordinates>174.78885,-36.88647,0</coordinates></Point>
</Placemark>
<Placemark>
<name>55 Coxhead Rd</name>
<description>6803</description>
<Point><coordinates>174.89194,-37.03122,0</coordinates></Point>
</Placemark>
<Placemark>
<name>14 Eastview Rd</name>
<description>7236</description>
<Point><coordinates>174.8534,-36.87222,0</coordinates></Point>
</Placemark>
<Placemark>
<name>145 Howe St</name>
<description>7237</description>
<Point><coordinates>174.75424,-36.85407,0</coordinates></Point>
</Placemark>
<Placemark>
<name>144 Howe St</name>
<description>7234</description>
<Point><coordinates>174.75417,-36.85413,0</coordinates></Point>
</Placemark>
<Placemark>
<name>75 Howe St</name>
<description>7235</description>
<Point><coordinates>174.75461,-36.85618,0</coordinates></Point>
</Placemark>
<Placemark>
<name>Opp 45 Howe St</name>
<description>7232</description>
<Point><coordinates>174.7545,-36.85636,0</coordinates></Point>
</Placemark>
<Placemark>
<name>5 Howe St</name>
<description>7233</description>
<Point><coordinates>174.75486,-36.85778,0</coordinates></Point>
</Placemark>
<Placemark>
<name>100 Park Rd</name>
<description>7230</description>
<Point><coordinates>174.77074,-36.86558,0</coordinates></Point>
</Placemark>
<Placemark>
<name>191 Park Rd</name>
<description>7231</description>
<Point><coordinates>174.77065,-36.86538,0</coordinates></Point>
</Placemark>
<Placemark>
<name>5 Coxhead Rd</name>
<description>6801</description>
<Point><coordinates>174.88994,-37.02735,0</coordinates></Point>
</Placemark>
<Placemark>
<name>51 Taniwha St</name>
<description>7948</description>
<Point><coordinates>174.8739,-36.87387,0</coordinates></Point>
</Placemark>
<Placemark>
<name>1 Inglewood St</name>
<description>7949</description>
<Point><coordinates>174.8749,-36.87027,0</coordinates></Point>
</Placemark>
<Placemark>
<name>Sylvia Park</name>
<description>7238</description>
<Point><coordinates>174.84009,-36.91569,0</coordinates></Point>
</Placemark>
<Placemark>
<name>Sylvia Park</name>
<description>7239</description>
<Point><coordinates>174.84026,-36.91579,0</coordinates></Point>
</Placemark>
<Placemark>
<name>Opp 110 Golfland Dr</name>
<description>6239</description>
<Point><coordinates>174.90873,-36.92554,0</coordinates></Point>
</Placemark>
<Placemark>
<name>4 Kyeemagh St</name>
<description>6238</description>
<Point><coordinates>174.92363,-36.90824,0</coordinates></Point>
</Placemark>
<Placemark>
<name>325 Botany Rd</name>
<description>6235</description>
<Point><coordinates>174.91274,-36.92722,0</coordinates></Point>
</Placemark>
<Placemark>
<name>56 Mirrabooka Ave</name>
<description>6234</description>
<Point><coordinates>174.92311,-36.91209,0</coordinates></Point>
</Placemark>
<Placemark>
<name>43 Golfland Dr</name>
<description>6237</description>
<Point><coordinates>174.90884,-36.91991,0</coordinates></Point>
</Placemark>
<Placemark>
<name>86 Mirrabooka Ave</name>
<description>6236</description>
<Point><coordinates>174.91995,-36.91234,0</coordinates></Point>
</Placemark>
<Placemark>
<name>Botany Town Centre</name>
<description>6231</description>
<Point><coordinates>174.91196,-36.93227,0</coordinates></Point>
</Placemark>
<Placemark>
<name>Opp 321 Botany Rd</name>
<description>6230</description>
<Point><coordinates>174.91307,-36.92692,0</coordinates></Point>
</Placemark>
<Placemark>
<name>Botany Town Centre</name>
<description>6233</description>
<Point><coordinates>174.91229,-36.93251,0</coordinates></Point>
</Placemark>
<Placemark>
<name>2 Mirrabooka Ave</name>
<description>6232</description>
<Point><coordinates>174.92425,-36.90921,0</coordinates></Point>
</Placemark>
<Placemark>
<name>234 Great South Rd</name>
<description>7606</description>
<Point><coordinates>174.7876,-36.88526,0</coordinates></Point>
</Placemark>
<Placemark>
<name>844 Beach Rd</name>
<description>3088</description>
<Point><coordinates>174.74552,-36.71015,0</coordinates></Point>
</Placemark>
<Placemark>
<name>Alfriston College</name>
<description>10512</description>
<Point><coordinates>174.91814,-37.01813,0</coordinates></Point>
</Placemark>
<Placemark>
<name>Mt Wellington Hwy near Penrose Rd</name>
<description>7812</description>
<Point><coordinates>174.83901,-36.90792,0</coordinates></Point>
</Placemark>
<Placemark>
<name>Alfriston Primary</name>
<description>10511</description>
<Point><coordinates>174.94016,-37.01715,0</coordinates></Point>
</Placemark>
<Placemark>
<name>Stanley Point Ferry Terminal</name>
<description>9770</description>
<Point><coordinates>174.78129,-36.82802,0</coordinates></Point>
</Placemark>
<Placemark>
<name>Opp 63 Morningside Dr</name>
<description>8866</description>
<Point><coordinates>174.73305,-36.88146,0</coordinates></Point>
</Placemark>
<Placemark>
<name>Castleford St and Taupiko</name>
<description>21408</description>
<Point><coordinates>174.6693,-36.93441,0</coordinates></Point>
</Placemark>
<Placemark>
<name>Castleford St and Godley</name>
<description>21409</description>
<Point><coordinates>174.66845,-36.93351,0</coordinates></Point>
</Placemark>
<Placemark>
<name>44 Riddell Rd</name>
<description>8860</description>
<Point><coordinates>174.86545,-36.85954,0</coordinates></Point>
</Placemark>
<Placemark>
<name>65 Morningside Dr</name>
<description>8861</description>
<Point><coordinates>174.7327,-36.88165,0</coordinates></Point>
</Placemark>
<Placemark>
<name>Castleford St and Avonleigh</name>
<description>21406</description>
<Point><coordinates>174.66965,-36.93624,0</coordinates></Point>
</Placemark>
<Placemark>
<name>Otitori Bay Rd and Tanekaha</name>
<description>21400</description>
<Point><coordinates>174.66109,-36.94463,0</coordinates></Point>
</Placemark>
<Placemark>
<name>21 St Lukes Rd</name>
<description>8868</description>
<Point><coordinates>174.72855,-36.8792,0</coordinates></Point>
</Placemark>
<Placemark>
<name>Inga Rd and Commodore Perry</name>
<description>41375</description>
<Point><coordinates>174.76496,-36.76563,0</coordinates></Point>
</Placemark>
<Placemark>
<name>Beach Rd and Rahopara</name>
<description>41376</description>
<Point><coordinates>174.76659,-36.76239,0</coordinates></Point>
</Placemark>
<Placemark>
<name>56 Beach Rd</name>
<description>41377</description>
<Point><coordinates>174.76561,-36.76058,0</coordinates></Point>
</Placemark>
<Placemark>
<name>Aberdeen Rd and East Coast</name>
<description>41370</description>
<Point><coordinates>174.75506,-36.75789,0</coordinates></Point>
</Placemark>
<Placemark>
<name>45 to 60 Aberdeen Rd</name>
<description>41371</description>
<Point><coordinates>174.75727,-36.75614,0</coordinates></Point>
</Placemark>
<Placemark>
<name>Opp 42 Aberdeen Rd</name>
<description>41372</description>
<Point><coordinates>174.75904,-36.75463,0</coordinates></Point>
</Placemark>
<Placemark>
<name>Aberdeen Rd and Rae</name>
<description>41373</description>
<Point><coordinates>174.76049,-36.7535,0</coordinates></Point>
</Placemark>
<Placemark>
<name>Castor Bay</name>
<description>41378</description>
<Point><coordinates>174.76729,-36.7586,0</coordinates></Point>
</Placemark>
<Placemark>
<name>Beach Rd and Peter</name>
<description>41379</description>
<Point><coordinates>174.76395,-36.75465,0</coordinates></Point>
</Placemark>
<Placemark>
<name>46 Diorella Dr</name>
<description>6366</description>
<Point><coordinates>174.88971,-36.98754,0</coordinates></Point>
</Placemark>
<Placemark>
<name>St Heliers Bay Rd and Long</name>
<description>31067</description>
<Point><coordinates>174.85706,-36.86225,0</coordinates></Point>
</Placemark>
<Placemark>
<name>St Heliers Bay Rd and Maskell</name>
<description>31066</description>
<Point><coordinates>174.86026,-36.85895,0</coordinates></Point>
</Placemark>
<Placemark>
<name>St Heliers Bay Rd and Woodside</name>
<description>31065</description>
<Point><coordinates>174.86022,-36.85751,0</coordinates></Point>
</Placemark>
<Placemark>
<name>70 Melrose Rd</name>
<description>1700</description>
<Point><coordinates>174.75339,-36.91582,0</coordinates></Point>
</Placemark>
<Placemark>
<name>179 Penrose Rd</name>
<description>1701</description>
<Point><coordinates>174.8282,-36.90792,0</coordinates></Point>
</Placemark>
<Placemark>
<name>67 Cobham Cres</name>
<description>5265</description>
<Point><coordinates>174.66761,-36.89207,0</coordinates></Point>
</Placemark>
<Placemark>
<name>Celtic Cr by Raphoe Pl Hail and Ride</name>
<description>1703</description>
<Point><coordinates>174.8241,-36.88999,0</coordinates></Point>
</Placemark>
<Placemark>
<name>560 Richmond Rd</name>
<description>1704</description>
<Point><coordinates>174.73301,-36.86141,0</coordinates></Point>
</Placemark>
<Placemark>
<name>Sykes Rd by Rec Centre</name>
<description>1706</description>
<Point><coordinates>174.87793,-37.03304,0</coordinates></Point>
</Placemark>
<Placemark>
<name>44 Miro St</name>
<description>5260</description>
<Point><coordinates>174.67379,-36.90409,0</coordinates></Point>
</Placemark>
<Placemark>
<name>56 Benson Rd</name>
<description>1708</description>
<Point><coordinates>174.80943,-36.87292,0</coordinates></Point>
</Placemark>
<Placemark>
<name>Polygon Rd and Turua</name>
<description>31063</description>
<Point><coordinates>174.85855,-36.85111,0</coordinates></Point>
</Placemark>
<Placemark>
<name>67 Godley Rd</name>
<description>5269</description>
<Point><coordinates>174.67961,-36.93044,0</coordinates></Point>
</Placemark>
<Placemark>
<name>26 Miro St</name>
<description>5268</description>
<Point><coordinates>174.67587,-36.90476,0</coordinates></Point>
</Placemark>
<Placemark>
<name>Opp Northcote Shopping Centre</name>
<description>41150</description>
<Point><coordinates>174.74438,-36.80181,0</coordinates></Point>
</Placemark>
<Placemark>
<name>Northcote Intermediate Bus Bay</name>
<description>41151</description>
<Point><coordinates>174.74495,-36.79906,0</coordinates></Point>
</Placemark>
<Placemark>
<name>Lake Rd by Northcote Intermediate</name>
<description>41152</description>
<Point><coordinates>174.74476,-36.79902,0</coordinates></Point>
</Placemark>
<Placemark>
<name>18 Robertson Rd</name>
<description>2096</description>
<Point><coordinates>174.80281,-36.95356,0</coordinates></Point>
</Placemark>
<Placemark>
<name>Ocean View Rd and Hillcrest</name>
<description>41154</description>
<Point><coordinates>174.74464,-36.7946,0</coordinates></Point>
</Placemark>
<Placemark>
<name>Hillcrest Ave and Ocean View</name>
<description>41155</description>
<Point><coordinates>174.74319,-36.79381,0</coordinates></Point>
</Placemark>
<Placemark>
<name>Eban Ave and Ocean View</name>
<description>41156</description>
<Point><coordinates>174.7411,-36.79689,0</coordinates></Point>
</Placemark>
<Placemark>
<name>Ocean View Rd and Alton</name>
<description>41157</description>
<Point><coordinates>174.74004,-36.79819,0</coordinates></Point>
</Placemark>
<Placemark>
<name>Ocean View Rd and Pupuke</name>
<description>41158</description>
<Point><coordinates>174.73689,-36.80064,0</coordinates></Point>
</Placemark>
<Placemark>
<name>Raleigh Rd and Pupuke</name>
<description>41159</description>
<Point><coordinates>174.73719,-36.80118,0</coordinates></Point>
</Placemark>
<Placemark>
<name>Long Dr and Towai</name>
<description>31060</description>
<Point><coordinates>174.85269,-36.85691,0</coordinates></Point>
</Placemark>
<Placemark>
<name>55 Grand Dr</name>
<description>4575</description>
<Point><coordinates>174.68057,-36.58839,0</coordinates></Point>
</Placemark>
<Placemark>
<name>133 Lakeside Dr</name>
<description>4577</description>
<Point><coordinates>174.68142,-36.5895,0</coordinates></Point>
</Placemark>
<Placemark>
<name>Western Springs College Bus Bay</name>
<description>11135</description>
<Point><coordinates>174.71796,-36.86193,0</coordinates></Point>
</Placemark>
<Placemark>
<name>Pt Chevalier Beach</name>
<description>11134</description>
<Point><coordinates>174.70428,-36.85267,0</coordinates></Point>
</Placemark>
<Placemark>
<name>Pt Chevalier Rd and Johnstone</name>
<description>11133</description>
<Point><coordinates>174.70416,-36.85467,0</coordinates></Point>
</Placemark>
<Placemark>
<name>Pt Chevalier Rd and Oliver</name>
<description>11132</description>
<Point><coordinates>174.70343,-36.85683,0</coordinates></Point>
</Placemark>
<Placemark>
<name>Pt Chevalier Rd and Dignan</name>
<description>11131</description>
<Point><coordinates>174.7025,-36.85936,0</coordinates></Point>
</Placemark>
<Placemark>
<name>Pt Chevalier Rd and Tera</name>
<description>11130</description>
<Point><coordinates>174.70331,-36.8611,0</coordinates></Point>
</Placemark>
<Placemark>
<name>Great North Rd and Fir</name>
<description>11139</description>
<Point><coordinates>174.70149,-36.88256,0</coordinates></Point>
</Placemark>
<Placemark>
<name>Great North Rd and Alford</name>
<description>11138</description>
<Point><coordinates>174.70223,-36.88008,0</coordinates></Point>
</Placemark>
<Placemark>
<name>89 Weatherly Rd</name>
<description>3029</description>
<Point><coordinates>174.74029,-36.7027,0</coordinates></Point>
</Placemark>
<Placemark>
<name>41 Glamorgan Dr</name>
<description>3028</description>
<Point><coordinates>174.74531,-36.70053,0</coordinates></Point>
</Placemark>
<Placemark>
<name>3 Geoffrey Rd</name>
<description>3027</description>
<Point><coordinates>174.73833,-36.70129,0</coordinates></Point>
</Placemark>
<Placemark>
<name>34 Marina Rd</name>
<description>3026</description>
<Point><coordinates>174.74444,-36.70003,0</coordinates></Point>
</Placemark>
<Placemark>
<name>36 Glamorgan Dr</name>
<description>3025</description>
<Point><coordinates>174.74537,-36.70057,0</coordinates></Point>
</Placemark>
<Placemark>
<name>144 Stredwick Dr</name>
<description>3024</description>
<Point><coordinates>174.74065,-36.6981,0</coordinates></Point>
</Placemark>
<Placemark>
<name>35 Marina Rd</name>
<description>3023</description>
<Point><coordinates>174.74431,-36.69997,0</coordinates></Point>
</Placemark>
<Placemark>
<name>84 Stredwick Dr</name>
<description>3022</description>
<Point><coordinates>174.73543,-36.69869,0</coordinates></Point>
</Placemark>
<Placemark>
<name>147 Stredwick Dr</name>
<description>3021</description>
<Point><coordinates>174.74111,-36.69789,0</coordinates></Point>
</Placemark>
<Placemark>
<name>58 Stredwick Dr</name>
<description>3020</description>
<Point><coordinates>174.73295,-36.69835,0</coordinates></Point>
</Placemark>
<Placemark>
<name>Opp 329 Onehunga Mall</name>
<description>8738</description>
<Point><coordinates>174.7847,-36.91821,0</coordinates></Point>
</Placemark>
<Placemark>
<name>317 Onehunga Mall</name>
<description>8739</description>
<Point><coordinates>174.78491,-36.91902,0</coordinates></Point>
</Placemark>
<Placemark>
<name>264 Onehunga Mall</name>
<description>8736</description>
<Point><coordinates>174.78498,-36.9203,0</coordinates></Point>
</Placemark>